event_name,category,date,start_time,venue,address,organizer,description,price,capacity,latitude,longitude,rating,rating_count,traffic_score,tags
KANDHE SAJJE LIVE IN CONCERT,Music Event,15-Oct-25,19:00,Dharmaraja College Auditorium,"Dharmaraja College, Kandy",Local Organizers,Live concert featuring local artists.,0,800,7.29,80.633,4.6,110,55,"music,live,evening"
Kings & Queens Wedding Expo 2025,Business Expo,24-Oct-25,10:00,Kandy City Centre,"Dalada Veediya, Kandy",Event Organizers,Wedding expo with vendors and fashion shows.,200,1500,7.292,80.636,4.4,3458,27.57,"expo,wedding,shopping"
ICONOGRAPHY : Angels Grand Tour,Business Expo,20-Sep-25,9:00,Kandy Art Gallery,"Kandy Art Gallery, Kandy",Local Art Council,Art exhibition showcasing iconography.,0,300,7.2915,80.6335,4.1,23,20.83,"art,exhibition,free"
World Tourism Day Trade Fair and Exhibition,Cultural Festival,27-Sep-23,9:00,Central Province Exhibition Grounds,Kandy,Central Province Tourism,Tourism trade fair with exhibitors across the province.,0,2000,7.293,80.64,4.5,4,26.71,"tourism,tradefair,exhibition"
The Grand Kandyan High Tea / Themed Event,Food Event,10-Nov-25,15:00,The Grand Kandyan Hotel,"Peradeniya Road, Kandy",The Grand Kandyan,High tea themed event at the hotel.,1500,200,7.2918,80.6382,5,3,22.86,"tea,hotel,event"
Monthly Tech Summit in Kandy,Academic Seminar,17-Jul-24,13:15,Peradeniya Botanical Gardens Lawn,"174 Market Lane, Kandy",Kandy Cultural Society,An outdoor celebration showcasing local culture and crafts.,100,75,7.311374,80.596086,5,1,29.57,tickets_required
Weekly Cultural Show in Kandy,Education,27-Mar-24,20:30,Kandy Open-Air Stage,"41 Market Lane, Kandy",Peradeniya Botanical Events,A community-focused event bringing together locals and visitors.,0,250,7.273809,80.609451,4.2,17,31.57,"kids,registration"
Grand Business Meetup in Kandy,Market,29-Jul-25,9:45,Kandy City Centre Auditorium,"161 Hill Street, Kandy",Heritage Kandy,A community-focused event bringing together locals and visitors.,0,75,7.310836,80.615314,4.1,21,34,paid
Local Startup Pitch in Kandy,Sports Event,17-Jan-25,11:30,Local Community Hall,"69 Market Lane, Kandy",Kandy Tourism Board,Hands-on workshop suitable for beginners and professionals.,300,500,7.314932,80.635362,4.9,14,34.14,"networking,tickets_required"
Open Business Meetup in Kandy,Academic Seminar,25-Apr-23,13:00,Temple of the Tooth Grounds,"17 Lake Road, Kandy",Festival Lanka,An informative session with expert speakers and networking opportunities.,500,1000,7.313051,80.629703,4.3,12,30.43,"family,outdoor"
Local Job Fair in Kandy,Education,10-Apr-26,18:30,Riverbank Event Space,"127 Temple Road, Kandy",Peradeniya Botanical Events,Hands-on workshop suitable for beginners and professionals.,0,100,7.300463,80.650277,5,5,39.14,"professional,tickets_required,indoor"
Community Cricket Match in Kandy,Academic Seminar,4-Jan-26,14:30,Peradeniya Botanical Gardens Lawn,"41 Garden Avenue, Kandy",Kandy Tourism Board,An outdoor celebration showcasing local culture and crafts.,300,500,7.24026,80.640546,5,13,31.71,family
Annual Tech Summit in Kandy,Market,22-Dec-25,6:30,University of Peradeniya Lecture Theatre,"93 Peradeniya Road, Kandy",Sri Lanka Conference Org,A community-focused event bringing together locals and visitors.,0,750,7.304542,80.606762,5,3,32,"family,networking,professional"
Monthly Business Meetup in Kandy,Sports Event,27-May-26,19:15,Ramada Kandy Banquet,"103 Market Lane, Kandy",Festival Lanka,A community-focused event bringing together locals and visitors.,200,150,7.29199,80.620667,4.2,1985,49.14,"tickets_required,outdoor,registration"
Grand Food Festival in Kandy,Business Conference,19-May-23,7:30,Kandy City Centre Auditorium,"72 Market Lane, Kandy",Kandy Music Circle,A community-focused event bringing together locals and visitors.,2000,150,7.278833,80.627746,4.9,13,27.29,networking
Open Coding Workshop in Kandy,Cultural Festival,14-Aug-25,7:00,Mahaweli Reach Hotel Conference Room,"87 Peradeniya Road, Kandy",Peradeniya Botanical Events,"Live performances, food stalls, and family activities.",0,400,7.308934,80.607406,5,3,25.29,"outdoor,paid"
Local Cricket Match in Kandy,Market,14-Apr-23,6:00,Kandy Open-Air Stage,"125 Garden Avenue, Kandy",University of Peradeniya,Hands-on workshop suitable for beginners and professionals.,0,300,7.2571,80.618073,4.3,727,58.86,"student,tickets_required"
Annual Music Night in Kandy,Educational Workshop,21-Mar-24,7:00,Kandy Cultural Centre,"150 Garden Avenue, Kandy",Lanka Events Co.,An outdoor celebration showcasing local culture and crafts.,0,500,7.280228,80.64969,5,14,28.71,networking
Open Startup Pitch in Kandy,Business Expo,12-Mar-26,13:00,Peradeniya Botanical Gardens Lawn,"150 Hill Street, Kandy",Mahaweli Event Planners,An informative session with expert speakers and networking opportunities.,0,250,7.281823,80.655429,4.6,18,26.57,"networking,indoor,professional"
Grand Business Meetup in Kandy,Film Screening,27-Jul-25,9:00,Bogambara Stadium,"34 Main Street, Kandy",Kandy Cultural Society,A community-focused event bringing together locals and visitors.,300,400,7.310469,80.651549,1.8,4,32.14,"tickets_required,indoor,paid"
Grand Food Festival in Kandy,Sports Event,8-Aug-23,10:30,Peradeniya Botanical Gardens Lawn,"184 Main Street, Kandy",Mahaweli Event Planners,Hands-on workshop suitable for beginners and professionals.,0,400,7.256288,80.634397,4,163,44.86,"free,networking"
Grand Music Night in Kandy,Market,20-Jun-24,11:45,Kandy Lakefront Hall,"29 Temple Road, Kandy",Kandy Tourism Board,An informative session with expert speakers and networking opportunities.,0,50,7.315604,80.638371,3.9,10,37.29,indoor
Community Cultural Show in Kandy,Film Screening,2-Jan-25,12:15,Kandy City Centre Auditorium,"144 Peradeniya Road, Kandy",Mahaweli Event Planners,A community-focused event bringing together locals and visitors.,0,150,7.27251,80.633446,4.7,3,20.71,kids
Weekly Film Night in Kandy,Market,23-Nov-23,9:45,Kandy Regency Hotel,"57 Lake Road, Kandy",Lanka Events Co.,"Live performances, food stalls, and family activities.",500,150,7.305327,80.622221,4.8,4,22.43,"paid,indoor"
Community Art Fair in Kandy,Academic Seminar,23-Oct-26,16:00,Ramada Kandy Banquet,"149 Main Street, Kandy",Peradeniya Botanical Events,An outdoor celebration showcasing local culture and crafts.,1000,300,7.243061,80.63176,4.9,50,36.29,indoor
Annual Startup Pitch in Kandy,Education,30-Nov-25,12:30,Mahaweli Reach Hotel Conference Room,"85 Hill Street, Kandy",Kandy Cultural Society,Hands-on workshop suitable for beginners and professionals.,750,500,7.265113,80.649361,5,18,25.57,"indoor,tickets_required,family"
Community Business Meetup in Kandy,Business Expo,23-Dec-23,15:45,Pallekele International Cricket Stadium,"54 Garden Avenue, Kandy",Kandy Tourism Board,An informative session with expert speakers and networking opportunities.,2000,400,7.302861,80.632466,4.2,302,40.57,"paid,indoor,tickets_required"
Annual Music Night in Kandy,Business Conference,27-Sep-24,13:15,Kandy Regency Hotel,"63 Garden Avenue, Kandy",Kandy Tourism Board,An informative session with expert speakers and networking opportunities.,500,300,7.288902,80.643794,4.6,66,37.86,"free,paid,student"
Local Cultural Show in Kandy,Educational Workshop,13-Apr-23,13:00,Ramada Kandy Banquet,"119 Market Lane, Kandy",Kandy Foodies Club,Hands-on workshop suitable for beginners and professionals.,2000,750,7.282491,80.629125,4.9,26,27.57,professional
Community Film Night in Kandy,Sports Event,29-Jul-26,14:45,Kandy Regency Hotel,"20 Market Lane, Kandy",Festival Lanka,An informative session with expert speakers and networking opportunities.,200,100,7.262858,80.60902,5,1,25.86,"outdoor,paid,student"
Open Cultural Show in Kandy,Cultural Festival,1-May-25,7:15,Kandy Open-Air Stage,"150 Market Lane, Kandy",Kandy Foodies Club,Hands-on workshop suitable for beginners and professionals.,2000,50,7.241563,80.651646,5,167,33.29,"tickets_required,registration,outdoor"
Monthly Startup Pitch in Kandy,Religious,21-Sep-25,6:45,Kandy Sports Complex,"104 Market Lane, Kandy",Peradeniya Botanical Events,An outdoor celebration showcasing local culture and crafts.,0,750,7.253204,80.622717,4,2,22.29,"networking,free,paid"
Local Film Night in Kandy,Educational Workshop,13-Apr-23,14:45,Local Community Hall,"84 Main Street, Kandy",Kandy Municipal Council,An outdoor celebration showcasing local culture and crafts.,1500,200,7.300898,80.616539,4.9,17,35.71,kids
Local Handicraft Market in Kandy,Academic Seminar,27-Aug-26,7:00,Bogambara Stadium,"6 Hill Street, Kandy",Kandy Youth Network,An outdoor celebration showcasing local culture and crafts.,500,400,7.252191,80.598835,5,62,31,"paid,family,indoor"
Annual Book Reading in Kandy,Networking,30-Sep-24,18:45,Kandy Town Hall,"177 Peradeniya Road, Kandy",Mahaweli Event Planners,Hands-on workshop suitable for beginners and professionals.,200,750,7.290179,80.597133,4.7,18,27.14,"kids,paid,tickets_required"
Monthly Handicraft Market in Kandy,Music Event,30-Sep-25,9:45,Mahaweli Reach Hotel Conference Room,"118 Market Lane, Kandy",Festival Lanka,Hands-on workshop suitable for beginners and professionals.,750,750,7.252239,80.60233,4.6,17,33.71,"registration,indoor,kids"
Community Music Night in Kandy,Art & Craft,12-Jul-25,13:45,Bogambara Stadium,"127 Peradeniya Road, Kandy",Lanka Events Co.,A community-focused event bringing together locals and visitors.,750,250,7.266001,80.624128,4.5,23,62.67,"outdoor,paid,networking"
Weekly Music Night in Kandy,Theatre,7-May-24,21:45,Kandy Open-Air Stage,"24 Main Street, Kandy",Kandy Youth Network,Hands-on workshop suitable for beginners and professionals.,1000,400,7.257728,80.638425,4.8,22,23.43,"tickets_required,kids,registration"
Annual Coding Workshop in Kandy,Sports Event,17-Apr-24,9:15,Nawaloka Hall,"138 Peradeniya Road, Kandy",Lanka Events Co.,An informative session with expert speakers and networking opportunities.,750,750,7.295213,80.603408,5,1,33.14,"outdoor,kids"
Annual Job Fair in Kandy,Sports Event,29-Dec-25,10:30,Kandy Town Hall,"75 Market Lane, Kandy",Heritage Kandy,Hands-on workshop suitable for beginners and professionals.,200,50,7.315527,80.634651,5,1,36.71,"family,free"
Grand Startup Pitch in Kandy,Art & Craft,14-May-23,18:45,Kandy Art Gallery,"176 Temple Road, Kandy",University of Peradeniya,An outdoor celebration showcasing local culture and crafts.,200,150,7.252138,80.64678,4.3,26,40.29,"outdoor,tickets_required,student"
Grand Coding Workshop in Kandy,Film Screening,20-Apr-26,19:30,Local Community Hall,"26 Peradeniya Road, Kandy",Lanka Events Co.,A community-focused event bringing together locals and visitors.,300,150,7.256623,80.604772,3.9,455,41.67,"professional,registration"
Monthly Food Festival in Kandy,Sports Event,13-Aug-24,15:45,Kandy City Centre Auditorium,"68 Peradeniya Road, Kandy",Kandy Music Circle,"Live performances, food stalls, and family activities.",500,300,7.3033,80.631285,5,2,19.71,paid
Open Coding Workshop in Kandy,Educational Workshop,11-Mar-26,15:45,Nawaloka Hall,"78 Market Lane, Kandy",Local Artists Collective,An outdoor celebration showcasing local culture and crafts.,2000,75,7.272201,80.609057,4.3,81,40.43,"free,paid"
Open Job Fair in Kandy,Academic Seminar,12-Feb-23,14:00,Riverbank Event Space,"167 Garden Avenue, Kandy",Local Artists Collective,"Live performances, food stalls, and family activities.",2000,75,7.313286,80.602704,4.5,2,48.86,"networking,paid"
Open Tech Summit in Kandy,Cultural Festival,11-Oct-25,15:45,Mahaweli Reach Hotel Conference Room,"81 Main Street, Kandy",Heritage Kandy,A community-focused event bringing together locals and visitors.,100,1000,7.265862,80.657913,4.8,50,39.43,tickets_required
Grand Art Fair in Kandy,Networking,24-Jun-25,7:15,Kandy Art Gallery,"74 Garden Avenue, Kandy",Kandy Tourism Board,An outdoor celebration showcasing local culture and crafts.,0,1000,7.310468,80.62393,4.1,21,25.43,tickets_required
Open Coding Workshop in Kandy,Business Conference,21-Aug-23,20:00,Kandy Regency Hotel,"75 Hill Street, Kandy",Festival Lanka,An informative session with expert speakers and networking opportunities.,2000,150,7.296433,80.619084,4.4,5,35.14,"tickets_required,family,paid"
Monthly Business Meetup in Kandy,Market,5-Nov-25,14:00,Mahaweli Reach Hotel Conference Room,"151 Hill Street, Kandy",Kandy Sports Association,An outdoor celebration showcasing local culture and crafts.,0,500,7.319912,80.624275,5,3,35,"student,professional,kids"
Community Coding Workshop in Kandy,Education,23-Feb-25,13:45,Kandy Regency Hotel,"122 Market Lane, Kandy",Local Artists Collective,An outdoor celebration showcasing local culture and crafts.,300,400,7.313074,80.616686,5,28,24.14,"paid,professional"
Open Cultural Show in Kandy,Food Event,23-Oct-23,19:15,Local Community Hall,"68 Main Street, Kandy",Kandy Cultural Society,Hands-on workshop suitable for beginners and professionals.,0,250,7.289861,80.617824,5,1,24.86,"free,registration,paid"
Open Art Fair in Kandy,Academic Seminar,5-Jul-23,19:00,Nawaloka Hall,"178 Main Street, Kandy",Kandy Music Circle,An informative session with expert speakers and networking opportunities.,750,250,7.312274,80.593219,4.5,4,31.71,"student,registration,family"
Local Film Night in Kandy,Educational Workshop,22-Feb-25,13:45,Bogambara Stadium,"164 Main Street, Kandy",Local Artists Collective,Hands-on workshop suitable for beginners and professionals.,2000,200,7.276766,80.636679,4.1,203,40.14,"registration,indoor"
Annual Food Festival in Kandy,Education,10-Sep-24,12:45,Kandy Sports Complex,"98 Hill Street, Kandy",Kandy Foodies Club,An outdoor celebration showcasing local culture and crafts.,100,1000,7.268717,80.610711,4.5,6,25.57,"free,registration,professional"
Monthly Cultural Show in Kandy,Market,22-Dec-24,13:15,Kandy Regency Hotel,"185 Peradeniya Road, Kandy",Local Artists Collective,"Live performances, food stalls, and family activities.",100,200,7.292735,80.648684,4.2,67,31,"family,paid,indoor"
Weekly Art Fair in Kandy,Education,16-Feb-24,10:30,Mahaweli Reach Hotel Conference Room,"66 Peradeniya Road, Kandy",Kandy Municipal Council,An informative session with expert speakers and networking opportunities.,0,250,7.315535,80.657717,4.1,266,43.71,networking
Grand Tech Summit in Kandy,Art & Craft,4-Jul-23,18:00,Kandy Open-Air Stage,"117 Main Street, Kandy",Kandy Sports Association,An outdoor celebration showcasing local culture and crafts.,1000,75,7.293826,80.637064,5,1,24,"kids,registration,outdoor"
Local Music Night in Kandy,Academic Seminar,6-Dec-26,15:45,Local Community Hall,"10 Main Street, Kandy",Mahaweli Event Planners,"Live performances, food stalls, and family activities.",0,500,7.319674,80.598128,4.4,389,54.57,"tickets_required,student,family"
Monthly Yoga Session in Kandy,Academic Seminar,29-Sep-25,19:30,Peradeniya Botanical Gardens Lawn,"56 Garden Avenue, Kandy",Festival Lanka,"Live performances, food stalls, and family activities.",1000,500,7.275576,80.606528,3.5,11,24.71,paid
Local Art Fair in Kandy,Business Conference,2-Aug-26,6:00,Kandy Cultural Centre,"145 Lake Road, Kandy",Kandy Tourism Board,An outdoor celebration showcasing local culture and crafts.,0,150,7.245489,80.643561,4.1,12,29.57,indoor
Annual Yoga Session in Kandy,Educational Workshop,24-Dec-23,9:00,Kandy Open-Air Stage,"61 Hill Street, Kandy",Lanka Events Co.,Hands-on workshop suitable for beginners and professionals.,0,300,7.265902,80.602197,4.8,10,29.14,"kids,tickets_required"
Monthly Music Night in Kandy,Theatre,13-Jun-26,7:30,Ramada Kandy Banquet,"16 Garden Avenue, Kandy",Kandy Music Circle,An outdoor celebration showcasing local culture and crafts.,0,400,7.307784,80.619839,3.9,560,52.43,paid
Open Job Fair in Kandy,Sports Event,29-Dec-26,16:45,Riverbank Event Space,"155 Garden Avenue, Kandy",Sri Lanka Conference Org,"Live performances, food stalls, and family activities.",500,300,7.247934,80.639125,5,2,31.86,"student,networking"
Monthly Film Night in Kandy,Cultural Festival,24-Sep-26,14:30,Mahaweli Reach Hotel Conference Room,"18 Temple Road, Kandy",Kandy Sports Association,An outdoor celebration showcasing local culture and crafts.,0,250,7.306542,80.596526,5,11,29.71,"kids,paid,student"
Annual Book Reading in Kandy,Art & Craft,16-Apr-23,15:30,Mahaweli Reach Hotel Conference Room,"130 Lake Road, Kandy",Festival Lanka,An outdoor celebration showcasing local culture and crafts.,1000,500,7.252378,80.623753,4.8,410,30,student
Community Music Night in Kandy,Networking,5-Jan-24,14:30,Kandy Sports Complex,"47 Peradeniya Road, Kandy",Kandy Cultural Society,An informative session with expert speakers and networking opportunities.,0,1000,7.25146,80.636014,5,19,23.57,"student,professional"
Local Cultural Show in Kandy,Educational Workshop,26-Oct-24,8:00,Kandy Municipal Grounds,"159 Temple Road, Kandy",Lanka Events Co.,An informative session with expert speakers and networking opportunities.,2000,750,7.293917,80.609047,5,8,25.86,"paid,kids,student"
Open Book Reading in Kandy,Sports Event,15-Dec-25,15:00,Riverbank Event Space,"15 Temple Road, Kandy",Kandy Foodies Club,Hands-on workshop suitable for beginners and professionals.,750,200,7.256354,80.656173,5,9,35.57,"student,family,registration"
Weekly Coding Workshop in Kandy,Food Event,18-Feb-26,17:00,Kandy Regency Hotel,"11 Garden Avenue, Kandy",Sri Lanka Conference Org,A community-focused event bringing together locals and visitors.,1500,750,7.241499,80.654481,4.4,922,31.57,"free,kids"
Weekly Tech Summit in Kandy,Market,13-Nov-26,17:00,Local Community Hall,"63 Garden Avenue, Kandy",Festival Lanka,A community-focused event bringing together locals and visitors.,750,250,7.28711,80.626677,5,71,35.43,"networking,paid,tickets_required"
Local Business Meetup in Kandy,Film Screening,14-Aug-26,10:15,Kandy Municipal Grounds,"51 Lake Road, Kandy",Kandy Sports Association,An outdoor celebration showcasing local culture and crafts.,300,1000,7.288192,80.643215,3.7,9,32.33677027,"networking,registration"
Monthly Business Meetup in Kandy,Art & Craft,19-Jun-25,8:45,Temple of the Tooth Grounds,"71 Hill Street, Kandy",Kandy Municipal Council,A community-focused event bringing together locals and visitors.,2000,50,7.244494,80.625514,5,2,33.29,"paid,registration,tickets_required"
Grand Film Night in Kandy,Theatre,26-Mar-23,20:15,Riverbank Event Space,"129 Lake Road, Kandy",Sri Lanka Conference Org,An informative session with expert speakers and networking opportunities.,1000,75,7.316618,80.621537,4.5,16,34.29,"professional,networking,tickets_required"
Monthly Book Reading in Kandy,Cultural Festival,2-Aug-24,18:45,Kandy Municipal Grounds,"14 Peradeniya Road, Kandy",Mahaweli Event Planners,A community-focused event bringing together locals and visitors.,1500,200,7.290471,80.613425,5,6,27.14,"networking,family,kids"
Monthly Cultural Show in Kandy,Academic Seminar,3-May-26,8:30,Pallekele International Cricket Stadium,"85 Peradeniya Road, Kandy",Kandy Municipal Council,A community-focused event bringing together locals and visitors.,200,1000,7.250224,80.639198,3.9,1501,21.43,"indoor,family"
Community Handicraft Market in Kandy,Cultural Festival,8-Apr-24,10:15,Kandy Art Gallery,"26 Hill Street, Kandy",Kandy Music Circle,Hands-on workshop suitable for beginners and professionals.,100,1000,7.30167,80.648458,4.8,82,21.14,family
Monthly Coding Workshop in Kandy,Art & Craft,15-Jun-25,7:45,University of Peradeniya Lecture Theatre,"61 Garden Avenue, Kandy",Heritage Kandy,An informative session with expert speakers and networking opportunities.,500,500,7.288848,80.642667,5,1,22.57,"networking,registration"
Weekly Food Festival in Kandy,Theatre,21-Feb-25,22:45,Nawaloka Hall,"155 Lake Road, Kandy",Kandy Youth Network,"Live performances, food stalls, and family activities.",1000,500,7.30984,80.593653,4.2,1090,29.86,family
Community Music Night in Kandy,Theatre,14-Jun-25,8:15,Ramada Kandy Banquet,"107 Temple Road, Kandy",Kandy Municipal Council,A community-focused event bringing together locals and visitors.,200,250,7.271716,80.616177,5,4,23.57,"networking,kids,family"
Grand Music Night in Kandy,Music Event,25-Aug-25,10:45,Nawaloka Hall,"21 Temple Road, Kandy",Mahaweli Event Planners,A community-focused event bringing together locals and visitors.,1500,75,7.260474,80.648447,4,63,31,outdoor
Monthly Art Fair in Kandy,Academic Seminar,16-Aug-23,21:00,Local Community Hall,"75 Garden Avenue, Kandy",University of Peradeniya,A community-focused event bringing together locals and visitors.,300,1000,7.240125,80.614697,5,110,40.86,"tickets_required,networking,registration"
Monthly Music Night in Kandy,Business Expo,25-Jul-26,18:30,Kandy Art Gallery,"92 Peradeniya Road, Kandy",Kandy Cultural Society,"Live performances, food stalls, and family activities.",200,750,7.245405,80.606879,2,1,35.57,"kids,family,professional"
Community Food Festival in Kandy,Academic Seminar,4-Oct-23,8:45,University of Peradeniya Lecture Theatre,"12 Peradeniya Road, Kandy",Kandy Youth Network,An informative session with expert speakers and networking opportunities.,1500,500,7.255958,80.592933,5,14,26.43,"kids,free"
Open Yoga Session in Kandy,Sports Event,23-Jan-25,19:45,Peradeniya Botanical Gardens Lawn,"48 Garden Avenue, Kandy",Kandy Youth Network,An outdoor celebration showcasing local culture and crafts.,750,75,7.295365,80.615714,4.2,6,22.83,tickets_required
Grand Coding Workshop in Kandy,Cultural Festival,2-Nov-24,15:30,Peradeniya Botanical Gardens Lawn,"110 Lake Road, Kandy",University of Peradeniya,A community-focused event bringing together locals and visitors.,0,250,7.295181,80.614608,3.9,15,29.14,"networking,student,kids"
Annual Food Festival in Kandy,Music Event,29-May-26,20:00,Kandy Lakefront Hall,"200 Market Lane, Kandy",Festival Lanka,Hands-on workshop suitable for beginners and professionals.,300,1000,7.269306,80.6168,5,1,31.43,registration
Annual Coding Workshop in Kandy,Food Event,5-Oct-24,14:15,Kandy Municipal Grounds,"48 Garden Avenue, Kandy",Peradeniya Botanical Events,Hands-on workshop suitable for beginners and professionals.,0,200,7.28142,80.653948,4.4,53,37.29,paid
Monthly Yoga Session in Kandy,Art & Craft,20-Dec-23,20:00,Bogambara Stadium,"182 Temple Road, Kandy",Kandy Foodies Club,An informative session with expert speakers and networking opportunities.,0,100,7.284,80.610325,5,2,34.14,outdoor
Grand Tech Summit in Kandy,Religious,9-Jan-25,17:45,Kandy Art Gallery,"17 Main Street, Kandy",Kandy Cultural Society,A community-focused event bringing together locals and visitors.,1500,300,7.271853,80.640185,5,3,35.43,"professional,tickets_required"
Grand Handicraft Market in Kandy,Educational Workshop,18-Apr-26,11:15,Kandy Open-Air Stage,"15 Peradeniya Road, Kandy",Kandy Tourism Board,"Live performances, food stalls, and family activities.",0,250,7.249933,80.600711,4.2,177,32.33677027,indoor
Grand Book Reading in Kandy,Academic Seminar,14-Sep-23,15:00,Kandy Open-Air Stage,"40 Lake Road, Kandy",Lanka Events Co.,"Live performances, food stalls, and family activities.",100,50,7.292699,80.640444,5,2,44.25,"outdoor,registration,student"
Weekly Cultural Show in Kandy,Theatre,7-Aug-26,15:45,Kandy Open-Air Stage,"176 Garden Avenue, Kandy",Lanka Events Co.,An informative session with expert speakers and networking opportunities.,0,400,7.263795,80.595108,4.4,92,41.71,"registration,family"
Grand Job Fair in Kandy,Art & Craft,8-Dec-24,18:15,Temple of the Tooth Grounds,"28 Main Street, Kandy",Heritage Kandy,An outdoor celebration showcasing local culture and crafts.,300,75,7.259339,80.598577,5,9,28.71,"outdoor,family"
Grand Film Night in Kandy,Film Screening,2-Oct-24,12:15,Riverbank Event Space,"128 Main Street, Kandy",Heritage Kandy,A community-focused event bringing together locals and visitors.,2000,150,7.27979,80.596303,5,1,24.71,"professional,registration"
Monthly Yoga Session in Kandy,Sports Event,9-Aug-23,19:15,Kandy Open-Air Stage,"196 Garden Avenue, Kandy",Kandy Cultural Society,Hands-on workshop suitable for beginners and professionals.,500,250,7.269275,80.618041,5,20,25.86,"professional,tickets_required,indoor"
Local Book Reading in Kandy,Educational Workshop,3-Feb-25,16:30,Peradeniya Botanical Gardens Lawn,"131 Garden Avenue, Kandy",Peradeniya Botanical Events,An informative session with expert speakers and networking opportunities.,0,250,7.280006,80.593171,5,2,37,"tickets_required,family,kids"
Open Handicraft Market in Kandy,Educational Workshop,4-Sep-24,16:45,Pallekele International Cricket Stadium,"5 Main Street, Kandy",Local Artists Collective,An outdoor celebration showcasing local culture and crafts.,750,1000,7.266499,80.597672,3.9,187,59.29,"outdoor,free,professional"
Local Music Night in Kandy,Food Event,26-Oct-26,13:00,Pallekele International Cricket Stadium,"113 Main Street, Kandy",Kandy Municipal Council,An outdoor celebration showcasing local culture and crafts.,0,500,7.273502,80.618907,4.3,1615,31.14,tickets_required
Grand Yoga Session in Kandy,Academic Seminar,10-Feb-25,16:15,Kandy Art Gallery,"140 Main Street, Kandy",Sri Lanka Conference Org,"Live performances, food stalls, and family activities.",750,750,7.294069,80.650736,4.1,212,45.43,"indoor,outdoor,networking"
Community Job Fair in Kandy,Education,14-Dec-26,21:30,Kandy Cultural Centre,"185 Main Street, Kandy",Heritage Kandy,"Live performances, food stalls, and family activities.",1500,250,7.263023,80.630143,4.3,454,51.14,"paid,kids,professional"
Annual Book Reading in Kandy,Education,18-Feb-24,14:30,Kandy Art Gallery,"190 Hill Street, Kandy",Kandy Music Circle,Hands-on workshop suitable for beginners and professionals.,500,1000,7.259143,80.593554,5,1,33.14,"professional,paid"
Monthly Food Festival in Kandy,Music Event,20-Nov-23,19:45,Kandy Open-Air Stage,"194 Main Street, Kandy",Mahaweli Event Planners,An informative session with expert speakers and networking opportunities.,200,1000,7.265693,80.635213,5,1,29.14,"family,free"
Grand Book Reading in Kandy,Market,15-Aug-24,7:00,Kandy Art Gallery,"28 Main Street, Kandy",Kandy Municipal Council,An informative session with expert speakers and networking opportunities.,2000,100,7.262765,80.659237,4.8,10,43.86,kids
Weekly Business Meetup in Kandy,Education,10-Jun-24,11:00,Local Community Hall,"146 Market Lane, Kandy",Kandy Tourism Board,Hands-on workshop suitable for beginners and professionals.,1500,300,7.300583,80.602285,4.1,284,47.14,"paid,family,registration"
Weekly Business Meetup in Kandy,Cultural Festival,18-Jun-24,18:15,Kandy Regency Hotel,"85 Main Street, Kandy",Kandy Cultural Society,Hands-on workshop suitable for beginners and professionals.,0,250,7.286597,80.630101,4.3,13,33.71,"family,student"
Local Film Night in Kandy,Education,27-Aug-24,17:15,Peradeniya Botanical Gardens Lawn,"40 Garden Avenue, Kandy",Kandy Tourism Board,A community-focused event bringing together locals and visitors.,2000,500,7.299819,80.632402,4.2,99,41,"professional,tickets_required,kids"
Local Yoga Session in Kandy,Film Screening,7-May-23,22:15,Riverbank Event Space,"134 Garden Avenue, Kandy",University of Peradeniya,An informative session with expert speakers and networking opportunities.,200,500,7.249299,80.604378,4,48,26.43,"student,professional,free"
Monthly Food Festival in Kandy,Academic Seminar,14-Feb-23,18:30,Nawaloka Hall,"149 Temple Road, Kandy",Heritage Kandy,"Live performances, food stalls, and family activities.",0,50,7.243623,80.614117,4.7,7,34.43,"family,networking"
Monthly Handicraft Market in Kandy,Cultural Festival,12-Feb-25,18:00,Pallekele International Cricket Stadium,"90 Temple Road, Kandy",Kandy Foodies Club,An outdoor celebration showcasing local culture and crafts.,500,50,7.254278,80.627608,4.3,72,74.6,"tickets_required,student"
Annual Cultural Show in Kandy,Religious,14-Nov-23,14:15,Local Community Hall,"170 Garden Avenue, Kandy",Kandy Sports Association,A community-focused event bringing together locals and visitors.,500,150,7.289194,80.655537,5,3,20.14,"registration,free"
Local Job Fair in Kandy,Education,17-Jun-25,13:15,Kandy City Centre Auditorium,"75 Lake Road, Kandy",Peradeniya Botanical Events,An informative session with expert speakers and networking opportunities.,1000,150,7.305263,80.641206,4.8,4,30.71,"indoor,networking"
Community Startup Pitch in Kandy,Food Event,25-Dec-23,19:45,Riverbank Event Space,"172 Garden Avenue, Kandy",Mahaweli Event Planners,Hands-on workshop suitable for beginners and professionals.,300,200,7.302864,80.612311,4,10,36.14,outdoor
Grand Job Fair in Kandy,Art & Craft,6-Aug-25,7:45,Kandy Lakefront Hall,"35 Garden Avenue, Kandy",Kandy Youth Network,A community-focused event bringing together locals and visitors.,2000,250,7.259429,80.604234,4.9,84,19.71,"student,registration"
Weekly Yoga Session in Kandy,Art & Craft,18-Apr-26,12:45,Bogambara Stadium,"78 Temple Road, Kandy",Kandy Music Circle,An outdoor celebration showcasing local culture and crafts.,2000,150,7.256945,80.603302,3.7,27,33.29,"indoor,student"
Annual Cultural Show in Kandy,Food Event,19-Jun-24,17:45,Kandy Municipal Grounds,"185 Garden Avenue, Kandy",Lanka Events Co.,An informative session with expert speakers and networking opportunities.,0,250,7.30093,80.612416,4.8,5,28,"family,free,indoor"
Open Job Fair in Kandy,Sports Event,6-Nov-24,13:45,Kandy Lakefront Hall,"168 Market Lane, Kandy",Kandy Music Circle,An informative session with expert speakers and networking opportunities.,2000,400,7.267005,80.643435,4,391,46.29,"tickets_required,professional,family"
Local Handicraft Market in Kandy,Food Event,2-Jun-23,7:00,Kandy City Centre Auditorium,"162 Lake Road, Kandy",Festival Lanka,Hands-on workshop suitable for beginners and professionals.,0,400,7.245437,80.600572,4.1,189,41.14,free
Weekly Art Fair in Kandy,Music Event,16-Jul-24,15:00,Kandy Town Hall,"28 Temple Road, Kandy",Sri Lanka Conference Org,"Live performances, food stalls, and family activities.",750,250,7.281951,80.606868,3.7,3,33.43,"professional,registration"
Open Cricket Match in Kandy,Education,1-Nov-26,8:00,Kandy Regency Hotel,"97 Hill Street, Kandy",Lanka Events Co.,A community-focused event bringing together locals and visitors.,200,400,7.27808,80.634572,4.1,128,40.29,"free,outdoor,registration"
Weekly Yoga Session in Kandy,Sports Event,2-Jun-23,14:00,Kandy City Centre Auditorium,"5 Lake Road, Kandy",Mahaweli Event Planners,An informative session with expert speakers and networking opportunities.,1500,75,7.286963,80.642658,5,3,32.57,"student,tickets_required,kids"
Annual Cricket Match in Kandy,Market,12-Nov-26,8:30,Kandy Lakefront Hall,"60 Peradeniya Road, Kandy",Kandy Youth Network,Hands-on workshop suitable for beginners and professionals.,1500,250,7.246081,80.632362,4.3,4,25.43,kids
Weekly Food Festival in Kandy,Business Expo,14-Apr-26,18:00,University of Peradeniya Lecture Theatre,"183 Temple Road, Kandy",Kandy Tourism Board,A community-focused event bringing together locals and visitors.,300,300,7.246563,80.600795,5,3,32.57,indoor
Open Job Fair in Kandy,Cultural Festival,29-Sep-23,8:15,Kandy Sports Complex,"143 Hill Street, Kandy",University of Peradeniya,"Live performances, food stalls, and family activities.",200,750,7.272644,80.591838,4.8,327,36,"student,paid"
Community Business Meetup in Kandy,Networking,4-Nov-26,18:15,Ramada Kandy Banquet,"69 Garden Avenue, Kandy",Kandy Municipal Council,"Live performances, food stalls, and family activities.",0,200,7.251675,80.601705,4.3,148,48.71,networking
Open Yoga Session in Kandy,Networking,8-Aug-23,10:30,Kandy Cultural Centre,"159 Garden Avenue, Kandy",Kandy Foodies Club,"Live performances, food stalls, and family activities.",300,200,7.304326,80.613068,4.5,4,29.33,student
Weekly Cultural Show in Kandy,Sports Event,11-May-24,16:45,Kandy Art Gallery,"101 Main Street, Kandy",Local Artists Collective,An informative session with expert speakers and networking opportunities.,300,1000,7.249111,80.62947,5,46,35.86,"indoor,paid"
Monthly Art Fair in Kandy,Academic Seminar,21-Jul-26,15:15,Kandy Art Gallery,"184 Garden Avenue, Kandy",Kandy Municipal Council,Hands-on workshop suitable for beginners and professionals.,2000,750,7.303126,80.595178,5,36,31.57,"free,kids,tickets_required"
Grand Startup Pitch in Kandy,Business Conference,23-Sep-26,17:15,Kandy Regency Hotel,"174 Market Lane, Kandy",Kandy Tourism Board,An informative session with expert speakers and networking opportunities.,1500,75,7.271969,80.642688,4,445,29.29,"tickets_required,networking,outdoor"
Annual Film Night in Kandy,Cultural Festival,23-Oct-26,22:15,Pallekele International Cricket Stadium,"27 Main Street, Kandy",Kandy Foodies Club,Hands-on workshop suitable for beginners and professionals.,0,100,7.273278,80.657321,4.5,45,43.57,tickets_required
Community Music Night in Kandy,Cultural Festival,16-Jun-25,20:30,Kandy Art Gallery,"182 Temple Road, Kandy",University of Peradeniya,An outdoor celebration showcasing local culture and crafts.,0,100,7.241807,80.614015,5,1,24.86,kids
Open Music Night in Kandy,Theatre,9-Apr-25,11:15,Kandy Regency Hotel,"189 Hill Street, Kandy",Kandy Youth Network,An outdoor celebration showcasing local culture and crafts.,100,150,7.310648,80.62147,4.5,1335,47.14,tickets_required
Grand Startup Pitch in Kandy,Cultural Festival,26-Jul-25,9:30,Temple of the Tooth Grounds,"81 Hill Street, Kandy",Kandy Music Circle,An outdoor celebration showcasing local culture and crafts.,0,250,7.271091,80.617478,5,1,21.14,"paid,family,kids"
Open Book Reading in Kandy,Religious,10-Jan-24,17:15,Nawaloka Hall,"36 Hill Street, Kandy",University of Peradeniya,An informative session with expert speakers and networking opportunities.,300,500,7.270697,80.603003,4.8,13,27.86,kids
Local Handicraft Market in Kandy,Networking,5-Jan-25,6:45,Kandy City Centre Auditorium,"99 Hill Street, Kandy",Festival Lanka,An outdoor celebration showcasing local culture and crafts.,1500,400,7.280435,80.624648,3.9,98,37,outdoor
Grand Coding Workshop in Kandy,Music Event,6-Jan-26,15:15,Kandy Sports Complex,"198 Peradeniya Road, Kandy",Kandy Music Circle,An outdoor celebration showcasing local culture and crafts.,750,500,7.279625,80.625756,4.4,10,14.71,student
Weekly Handicraft Market in Kandy,Education,8-Mar-23,20:30,Kandy Regency Hotel,"23 Garden Avenue, Kandy",Lanka Events Co.,An outdoor celebration showcasing local culture and crafts.,500,750,7.309223,80.598217,3.9,482,21.57,outdoor
Monthly Business Meetup in Kandy,Market,19-Dec-24,14:15,Kandy City Centre Auditorium,"75 Hill Street, Kandy",Local Artists Collective,An informative session with expert speakers and networking opportunities.,200,100,7.261387,80.650061,5,1,30.57,"family,outdoor,networking"
Grand Startup Pitch in Kandy,Art & Craft,16-Oct-26,18:45,Kandy Regency Hotel,"69 Market Lane, Kandy",Kandy Youth Network,Hands-on workshop suitable for beginners and professionals.,200,300,7.273138,80.621639,4.5,2,22.71,"kids,registration"
Local Cricket Match in Kandy,Art & Craft,27-Jul-25,17:00,Bogambara Stadium,"55 Garden Avenue, Kandy",Heritage Kandy,A community-focused event bringing together locals and visitors.,300,750,7.261483,80.647984,4.5,47,47.14,networking
Open Food Festival in Kandy,Music Event,20-Nov-23,20:45,Peradeniya Botanical Gardens Lawn,"177 Lake Road, Kandy",Mahaweli Event Planners,"Live performances, food stalls, and family activities.",750,75,7.310572,80.611131,4.7,66,40,"networking,family,free"
Monthly Tech Summit in Kandy,Academic Seminar,3-Dec-26,13:45,Nawaloka Hall,"1 Lake Road, Kandy",Heritage Kandy,"Live performances, food stalls, and family activities.",0,1000,7.278145,80.599289,5,10,27,student
Community Yoga Session in Kandy,Theatre,23-Feb-25,8:00,Bogambara Stadium,"77 Lake Road, Kandy",Kandy Music Circle,Hands-on workshop suitable for beginners and professionals.,300,75,7.270618,80.646936,5,1,24.43,"outdoor,family"
Weekly Tech Summit in Kandy,Networking,20-Mar-24,8:00,Local Community Hall,"151 Market Lane, Kandy",Festival Lanka,An outdoor celebration showcasing local culture and crafts.,300,150,7.270723,80.657427,5,1,35.86,"registration,networking,indoor"
Community Startup Pitch in Kandy,Art & Craft,26-Nov-25,22:15,Nawaloka Hall,"14 Peradeniya Road, Kandy",Kandy Music Circle,A community-focused event bringing together locals and visitors.,200,150,7.311833,80.656827,5,20,31.14,"kids,family"
Annual Book Reading in Kandy,Art & Craft,18-Jan-25,11:45,Riverbank Event Space,"18 Temple Road, Kandy",Peradeniya Botanical Events,Hands-on workshop suitable for beginners and professionals.,0,300,7.260975,80.592788,4.9,18,27.71,"student,paid"
Grand Yoga Session in Kandy,Sports Event,11-Jun-23,22:15,Bogambara Stadium,"101 Hill Street, Kandy",Lanka Events Co.,An informative session with expert speakers and networking opportunities.,200,200,7.290744,80.648417,5,3,33,student
Monthly Art Fair in Kandy,Theatre,26-Sep-26,11:00,Kandy City Centre Auditorium,"180 Temple Road, Kandy",Lanka Events Co.,A community-focused event bringing together locals and visitors.,750,100,7.253107,80.656711,5,2,16.71,kids
Grand Yoga Session in Kandy,Sports Event,22-Jun-24,8:45,Ramada Kandy Banquet,"15 Garden Avenue, Kandy",University of Peradeniya,A community-focused event bringing together locals and visitors.,0,75,7.308749,80.601682,4.9,36,36.57,free
Grand Cultural Show in Kandy,Music Event,23-Feb-25,10:15,Kandy Art Gallery,"183 Market Lane, Kandy",Kandy Sports Association,"Live performances, food stalls, and family activities.",0,250,7.292456,80.605716,5,24,25.86,tickets_required
Open Handicraft Market in Kandy,Educational Workshop,22-Nov-25,7:45,Kandy Regency Hotel,"73 Peradeniya Road, Kandy",Kandy Youth Network,"Live performances, food stalls, and family activities.",100,250,7.307588,80.612911,5,8,51.57,"registration,outdoor,professional"
Open Music Night in Kandy,Networking,5-Feb-24,13:15,Kandy Art Gallery,"60 Hill Street, Kandy",Kandy Youth Network,An informative session with expert speakers and networking opportunities.,1000,50,7.267714,80.64877,5,1,22.14,"outdoor,student,professional"
Open Coding Workshop in Kandy,Educational Workshop,31-Mar-23,13:45,Kandy Sports Complex,"22 Hill Street, Kandy",University of Peradeniya,An informative session with expert speakers and networking opportunities.,200,750,7.247646,80.599346,5,5,25,"indoor,kids"
Local Art Fair in Kandy,Education,16-Jul-25,14:15,Temple of the Tooth Grounds,"200 Peradeniya Road, Kandy",Kandy Sports Association,An outdoor celebration showcasing local culture and crafts.,0,400,7.286777,80.600879,4.5,25,24.86,"outdoor,professional"
Weekly Coding Workshop in Kandy,Theatre,3-Sep-23,8:15,Kandy Sports Complex,"179 Hill Street, Kandy",Festival Lanka,A community-focused event bringing together locals and visitors.,200,150,7.243226,80.648515,4.9,7,45,"indoor,networking,family"
Annual Cultural Show in Kandy,Business Expo,31-Jan-26,13:00,Local Community Hall,"36 Temple Road, Kandy",Sri Lanka Conference Org,An outdoor celebration showcasing local culture and crafts.,300,150,7.240957,80.648126,5,2,30.86,"indoor,paid,free"
Annual Film Night in Kandy,Religious,21-Sep-23,8:30,Local Community Hall,"13 Lake Road, Kandy",Kandy Youth Network,"Live performances, food stalls, and family activities.",2000,50,7.313931,80.620321,3.7,7,50.29,family
Open Cricket Match in Kandy,Sports Event,1-Nov-23,7:15,Local Community Hall,"141 Garden Avenue, Kandy",Mahaweli Event Planners,A community-focused event bringing together locals and visitors.,0,150,7.244878,80.609584,5,2,24.83,"kids,professional"
Annual Yoga Session in Kandy,Cultural Festival,20-Oct-24,18:30,Riverbank Event Space,"153 Lake Road, Kandy",Sri Lanka Conference Org,An informative session with expert speakers and networking opportunities.,0,400,7.242344,80.646748,4.4,50,17.29,paid
Community Handicraft Market in Kandy,Academic Seminar,28-Dec-25,7:15,Kandy Regency Hotel,"45 Lake Road, Kandy",Lanka Events Co.,An outdoor celebration showcasing local culture and crafts.,1000,750,7.258924,80.61226,5,1,25.14,registration
Annual Music Night in Kandy,Art & Craft,24-Sep-24,11:45,Kandy Art Gallery,"60 Hill Street, Kandy",Sri Lanka Conference Org,An informative session with expert speakers and networking opportunities.,0,750,7.257505,80.626851,4.9,31,31.29,"free,networking"
Community Coding Workshop in Kandy,Networking,16-Aug-23,22:30,Kandy Lakefront Hall,"170 Garden Avenue, Kandy",Kandy Youth Network,An outdoor celebration showcasing local culture and crafts.,300,300,7.286881,80.613559,3.9,436,33.71,"registration,kids,outdoor"
Monthly Music Night in Kandy,Business Expo,11-Nov-26,15:15,Nawaloka Hall,"180 Hill Street, Kandy",Heritage Kandy,A community-focused event bringing together locals and visitors.,100,100,7.271328,80.6596,5,1,34.86,"family,kids"
Annual Business Meetup in Kandy,Religious,10-Dec-23,8:30,Kandy Municipal Grounds,"54 Lake Road, Kandy",Kandy Sports Association,An informative session with expert speakers and networking opportunities.,100,50,7.295454,80.614534,5,1,24.14,"professional,student"
Annual Cultural Show in Kandy,Food Event,8-Sep-25,13:15,Pallekele International Cricket Stadium,"9 Main Street, Kandy",University of Peradeniya,A community-focused event bringing together locals and visitors.,0,250,7.241606,80.608279,5,4,31.29,"paid,kids,professional"
Community Food Festival in Kandy,Business Expo,8-Jun-25,11:00,University of Peradeniya Lecture Theatre,"49 Garden Avenue, Kandy",Local Artists Collective,A community-focused event bringing together locals and visitors.,750,1000,7.295776,80.640543,5,6,29.86,student
Weekly Startup Pitch in Kandy,Educational Workshop,8-Jan-23,19:00,Kandy City Centre Auditorium,"161 Hill Street, Kandy",Kandy Sports Association,A community-focused event bringing together locals and visitors.,0,1000,7.278426,80.596789,5,1,26,"student,professional"
Open Yoga Session in Kandy,Film Screening,7-Aug-26,18:15,Kandy Sports Complex,"48 Garden Avenue, Kandy",University of Peradeniya,A community-focused event bringing together locals and visitors.,0,200,7.243569,80.620782,5,11,23.83,"kids,tickets_required,student"
Grand Food Festival in Kandy,Food Event,3-Mar-25,22:45,Kandy City Centre Auditorium,"122 Main Street, Kandy",Festival Lanka,An informative session with expert speakers and networking opportunities.,300,75,7.246316,80.653194,5,3,26.43,family
Community Coding Workshop in Kandy,Business Expo,10-Jun-25,12:15,Bogambara Stadium,"18 Temple Road, Kandy",Kandy Tourism Board,An outdoor celebration showcasing local culture and crafts.,750,500,7.271048,80.617815,4.1,5170,25.29,"paid,student"
Weekly Business Meetup in Kandy,Educational Workshop,8-Apr-26,9:00,Riverbank Event Space,"138 Main Street, Kandy",Local Artists Collective,An informative session with expert speakers and networking opportunities.,2000,50,7.310231,80.60849,4.5,4,35.14,"registration,student,free"
Community Music Night in Kandy,Film Screening,1-May-24,7:45,Temple of the Tooth Grounds,"87 Peradeniya Road, Kandy",Heritage Kandy,"Live performances, food stalls, and family activities.",200,150,7.303492,80.611766,4,10,36.71,"student,registration"
Grand Cultural Show in Kandy,Religious,13-Apr-25,21:30,Local Community Hall,"41 Temple Road, Kandy",Kandy Music Circle,An informative session with expert speakers and networking opportunities.,0,500,7.26489,80.625476,4.7,12,28,outdoor
Weekly Film Night in Kandy,Theatre,8-Jan-25,12:30,Kandy City Centre Auditorium,"130 Garden Avenue, Kandy",Mahaweli Event Planners,Hands-on workshop suitable for beginners and professionals.,0,250,7.290833,80.598671,5,3,29.14,"tickets_required,kids,registration"
Open Music Night in Kandy,Art & Craft,11-Nov-26,8:30,Kandy Sports Complex,"42 Peradeniya Road, Kandy",Heritage Kandy,An outdoor celebration showcasing local culture and crafts.,500,1000,7.285781,80.657544,4.6,31,39.14,networking
Grand Cultural Show in Kandy,Theatre,21-Dec-23,6:15,Kandy Lakefront Hall,"79 Market Lane, Kandy",Kandy Tourism Board,Hands-on workshop suitable for beginners and professionals.,1500,250,7.317362,80.634992,4,619,33.71,"networking,tickets_required"
Monthly Tech Summit in Kandy,Networking,13-Nov-25,17:30,Peradeniya Botanical Gardens Lawn,"124 Temple Road, Kandy",Kandy Cultural Society,An outdoor celebration showcasing local culture and crafts.,750,200,7.266903,80.609354,4.6,11,32.57,free
Community Cricket Match in Kandy,Academic Seminar,14-Oct-23,6:45,Temple of the Tooth Grounds,"104 Garden Avenue, Kandy",Kandy Tourism Board,"Live performances, food stalls, and family activities.",500,250,7.298939,80.630812,5,1,26.71,"indoor,family,tickets_required"
Monthly Tech Summit in Kandy,Sports Event,20-Sep-23,14:15,Peradeniya Botanical Gardens Lawn,"57 Main Street, Kandy",Kandy Foodies Club,A community-focused event bringing together locals and visitors.,1000,250,7.257866,80.651,5,11,28.29,"free,registration"
Annual Handicraft Market in Kandy,Theatre,3-Sep-23,18:30,Kandy Cultural Centre,"39 Lake Road, Kandy",Sri Lanka Conference Org,Hands-on workshop suitable for beginners and professionals.,2000,100,7.319388,80.613987,5,2,21.43,"networking,family"
Grand Cultural Show in Kandy,Academic Seminar,14-Jul-25,14:15,Kandy City Centre Auditorium,"41 Garden Avenue, Kandy",Kandy Cultural Society,Hands-on workshop suitable for beginners and professionals.,0,300,7.302817,80.644583,4.4,9,30.71,"free,networking"
Monthly Music Night in Kandy,Education,21-Oct-24,22:15,Kandy Municipal Grounds,"161 Market Lane, Kandy",Kandy Cultural Society,"Live performances, food stalls, and family activities.",300,75,7.259906,80.638547,4.3,3,21.14,paid
Monthly Art Fair in Kandy,Sports Event,1-Dec-25,22:30,Nawaloka Hall,"88 Garden Avenue, Kandy",Kandy Foodies Club,An informative session with expert speakers and networking opportunities.,1500,50,7.26874,80.60319,5,2,30,"free,registration,tickets_required"
Weekly Job Fair in Kandy,Business Conference,25-Aug-26,7:45,Kandy Municipal Grounds,"160 Temple Road, Kandy",Heritage Kandy,Hands-on workshop suitable for beginners and professionals.,0,50,7.287514,80.593357,5,3,24.43,"paid,tickets_required"
Monthly Tech Summit in Kandy,Theatre,24-Nov-26,6:30,Kandy Lakefront Hall,"170 Hill Street, Kandy",Kandy Music Circle,A community-focused event bringing together locals and visitors.,0,75,7.261598,80.632394,5,1,29.86,professional
Monthly Cricket Match in Kandy,Networking,22-Jun-24,22:15,Kandy Cultural Centre,"76 Lake Road, Kandy",Kandy Youth Network,A community-focused event bringing together locals and visitors.,0,400,7.243152,80.624745,5,17,27.14,"paid,networking,professional"
Community Business Meetup in Kandy,Business Conference,27-Jul-23,14:15,Ramada Kandy Banquet,"119 Temple Road, Kandy",University of Peradeniya,A community-focused event bringing together locals and visitors.,0,200,7.247985,80.602229,5,10,30.71,free
Open Book Reading in Kandy,Art & Craft,18-Aug-26,11:30,Kandy Lakefront Hall,"69 Market Lane, Kandy",Kandy Tourism Board,Hands-on workshop suitable for beginners and professionals.,0,300,7.247436,80.647048,5,2,21.71,"professional,student,family"
Weekly Book Reading in Kandy,Educational Workshop,23-Nov-23,9:45,Kandy City Centre Auditorium,"174 Garden Avenue, Kandy",Festival Lanka,A community-focused event bringing together locals and visitors.,100,1000,7.254501,80.616583,5,4,30.71,"professional,free"
Grand Job Fair in Kandy,Sports Event,13-Dec-26,22:15,Temple of the Tooth Grounds,"177 Market Lane, Kandy",Kandy Cultural Society,An outdoor celebration showcasing local culture and crafts.,2000,250,7.289459,80.620299,4.5,29,31.14,free
Community Food Festival in Kandy,Food Event,12-Oct-25,11:00,Kandy Art Gallery,"85 Main Street, Kandy",Festival Lanka,An outdoor celebration showcasing local culture and crafts.,1500,150,7.244028,80.605589,5,4,26.43,"paid,professional"
Open Music Night in Kandy,Cultural Festival,31-Aug-26,6:00,Peradeniya Botanical Gardens Lawn,"143 Hill Street, Kandy",Kandy Foodies Club,"Live performances, food stalls, and family activities.",750,500,7.240014,80.596363,4.9,57,41.71,"free,outdoor"
Annual Tech Summit in Kandy,Cultural Festival,23-Jun-26,21:30,Kandy Open-Air Stage,"195 Market Lane, Kandy",Kandy Youth Network,A community-focused event bringing together locals and visitors.,750,500,7.25774,80.613895,4.7,15,34.57,professional
Weekly Cricket Match in Kandy,Art & Craft,4-Jun-24,12:15,Mahaweli Reach Hotel Conference Room,"56 Garden Avenue, Kandy",University of Peradeniya,An outdoor celebration showcasing local culture and crafts.,1500,50,7.305964,80.603341,3.5,32,30.71,"family,professional,free"
Monthly Handicraft Market in Kandy,Food Event,13-Apr-26,21:15,Mahaweli Reach Hotel Conference Room,"33 Temple Road, Kandy",Festival Lanka,"Live performances, food stalls, and family activities.",1500,300,7.270992,80.632038,4.6,9,37.71,"professional,family"
Local Book Reading in Kandy,Business Expo,7-Dec-26,16:15,Ramada Kandy Banquet,"183 Main Street, Kandy",Lanka Events Co.,"Live performances, food stalls, and family activities.",0,1000,7.294929,80.654483,5,1,25.86,"paid,kids,tickets_required"
Weekly Music Night in Kandy,Networking,25-Dec-26,19:30,Riverbank Event Space,"134 Temple Road, Kandy",Kandy Tourism Board,An informative session with expert speakers and networking opportunities.,500,200,7.242022,80.600173,5,1,21.29,indoor
Monthly Startup Pitch in Kandy,Market,4-Jan-25,20:00,Kandy Open-Air Stage,"144 Garden Avenue, Kandy",Kandy Cultural Society,Hands-on workshop suitable for beginners and professionals.,750,1000,7.259008,80.644902,5,7,47.57,"kids,tickets_required,free"
Weekly Book Reading in Kandy,Education,24-Jun-26,20:15,Kandy Sports Complex,"140 Market Lane, Kandy",Kandy Music Circle,An informative session with expert speakers and networking opportunities.,750,400,7.288271,80.64433,1,1,34.71,"tickets_required,paid,student"
Annual Yoga Session in Kandy,Business Expo,25-Jun-24,10:15,Kandy Sports Complex,"120 Market Lane, Kandy",Sri Lanka Conference Org,An outdoor celebration showcasing local culture and crafts.,100,1000,7.315,80.592796,5,1,28.8,"paid,kids"
Annual Yoga Session in Kandy,Educational Workshop,31-Oct-25,11:45,Ramada Kandy Banquet,"57 Lake Road, Kandy",University of Peradeniya,A community-focused event bringing together locals and visitors.,0,750,7.293067,80.613175,4.8,17,27.71,networking
Open Cultural Show in Kandy,Theatre,8-Aug-26,13:00,Kandy Regency Hotel,"30 Garden Avenue, Kandy",Mahaweli Event Planners,Hands-on workshop suitable for beginners and professionals.,0,500,7.260527,80.640678,5,1,22.57,"free,indoor"
Local Startup Pitch in Kandy,Cultural Festival,16-Jul-23,11:00,Ramada Kandy Banquet,"162 Peradeniya Road, Kandy",University of Peradeniya,A community-focused event bringing together locals and visitors.,500,500,7.257054,80.637978,5,3,39.14,"kids,free"
Open Cricket Match in Kandy,Business Conference,30-May-24,8:15,Kandy City Centre Auditorium,"116 Market Lane, Kandy",Kandy Municipal Council,A community-focused event bringing together locals and visitors.,200,500,7.272356,80.612148,5,1,24.14,"paid,kids,tickets_required"
Open Handicraft Market in Kandy,Sports Event,27-Jun-23,15:45,Nawaloka Hall,"170 Temple Road, Kandy",Local Artists Collective,"Live performances, food stalls, and family activities.",0,300,7.277919,80.627343,4.2,5,30.43,"networking,kids,free"
Local Coding Workshop in Kandy,Business Conference,18-Mar-26,18:00,Kandy City Centre Auditorium,"190 Market Lane, Kandy",Kandy Cultural Society,An informative session with expert speakers and networking opportunities.,300,100,7.267508,80.618886,5,1,29.14,family
Community Tech Summit in Kandy,Art & Craft,13-Aug-26,8:30,Kandy Open-Air Stage,"51 Market Lane, Kandy",Kandy Foodies Club,"Live performances, food stalls, and family activities.",500,75,7.286448,80.656608,5,1,23.71,"professional,kids"
Local Music Night in Kandy,Education,4-Mar-26,17:30,Riverbank Event Space,"81 Lake Road, Kandy",Kandy Municipal Council,Hands-on workshop suitable for beginners and professionals.,750,250,7.302853,80.639854,5,6,34.71,"kids,indoor"
Grand Food Festival in Kandy,Food Event,15-Aug-26,8:30,Peradeniya Botanical Gardens Lawn,"68 Market Lane, Kandy",Kandy Municipal Council,An outdoor celebration showcasing local culture and crafts.,0,50,7.310907,80.595352,4.5,58,32.33677027,"registration,outdoor"
Open Food Festival in Kandy,Food Event,10-Jan-26,21:15,Kandy Sports Complex,"198 Hill Street, Kandy",Sri Lanka Conference Org,An informative session with expert speakers and networking opportunities.,200,300,7.298658,80.61037,5,35,27.86,"networking,family,tickets_required"
Annual Food Festival in Kandy,Theatre,5-Mar-26,10:45,University of Peradeniya Lecture Theatre,"195 Garden Avenue, Kandy",Kandy Municipal Council,Hands-on workshop suitable for beginners and professionals.,0,1000,7.25854,80.608505,5,9,25.43,"professional,free"
Grand Job Fair in Kandy,Academic Seminar,12-Dec-26,22:30,Temple of the Tooth Grounds,"146 Lake Road, Kandy",University of Peradeniya,An outdoor celebration showcasing local culture and crafts.,200,500,7.270133,80.616496,5,6,32.29,"kids,networking"
Local Food Festival in Kandy,Market,22-May-26,6:15,Kandy Art Gallery,"20 Hill Street, Kandy",Mahaweli Event Planners,"Live performances, food stalls, and family activities.",0,250,7.291478,80.604806,5,4,27.71,"paid,professional,registration"
Annual Art Fair in Kandy,Religious,18-Aug-26,19:00,Riverbank Event Space,"147 Hill Street, Kandy",Kandy Municipal Council,"Live performances, food stalls, and family activities.",0,750,7.25289,80.634068,4.4,7,26.43,tickets_required
Open Book Reading in Kandy,Networking,8-Feb-23,15:00,Riverbank Event Space,"121 Peradeniya Road, Kandy",Kandy Tourism Board,An informative session with expert speakers and networking opportunities.,300,750,7.278533,80.605355,5,20,29,"networking,kids,professional"
Grand Handicraft Market in Kandy,Religious,28-Sep-23,9:00,Pallekele International Cricket Stadium,"130 Market Lane, Kandy",Peradeniya Botanical Events,A community-focused event bringing together locals and visitors.,0,400,7.273584,80.600469,5,2,31,professional
Weekly Music Night in Kandy,Film Screening,3-Jan-23,19:45,Kandy Open-Air Stage,"179 Hill Street, Kandy",Festival Lanka,"Live performances, food stalls, and family activities.",1500,250,7.274317,80.65569,5,3,30.71,"outdoor,paid"
Grand Job Fair in Kandy,Networking,11-Jun-24,12:00,Kandy Open-Air Stage,"31 Hill Street, Kandy",Peradeniya Botanical Events,Hands-on workshop suitable for beginners and professionals.,1000,300,7.240576,80.635818,5,2,33.14,"registration,indoor,networking"
Grand Cultural Show in Kandy,Networking,18-Jul-24,18:15,Kandy Municipal Grounds,"143 Garden Avenue, Kandy",Local Artists Collective,A community-focused event bringing together locals and visitors.,750,750,7.254298,80.629137,5,4,26.29,"outdoor,professional,family"
Monthly Music Night in Kandy,Religious,24-Nov-24,7:15,Ramada Kandy Banquet,"24 Peradeniya Road, Kandy",Peradeniya Botanical Events,An outdoor celebration showcasing local culture and crafts.,200,200,7.251626,80.65481,4.8,20,30.57,student
Open Music Night in Kandy,Networking,28-Dec-26,7:15,Ramada Kandy Banquet,"52 Peradeniya Road, Kandy",Lanka Events Co.,An outdoor celebration showcasing local culture and crafts.,0,50,7.292551,80.646274,4.2,20,31.14,networking
Weekly Cricket Match in Kandy,Cultural Festival,1-Jan-23,11:00,Kandy Regency Hotel,"91 Market Lane, Kandy",Kandy Tourism Board,An outdoor celebration showcasing local culture and crafts.,200,75,7.271611,80.631026,4.2,70,38,"kids,indoor"
Open Job Fair in Kandy,Networking,7-Apr-25,6:30,Kandy Cultural Centre,"28 Hill Street, Kandy",Kandy Foodies Club,An outdoor celebration showcasing local culture and crafts.,750,500,7.245791,80.610598,5,2,24.14,"outdoor,kids"
Community Tech Summit in Kandy,Academic Seminar,16-Apr-26,6:45,Local Community Hall,"98 Market Lane, Kandy",Mahaweli Event Planners,A community-focused event bringing together locals and visitors.,1000,300,7.303092,80.605427,5,2,28.14,"indoor,outdoor,networking"
Community Food Festival in Kandy,Business Expo,9-Feb-26,11:45,Temple of the Tooth Grounds,"147 Main Street, Kandy",University of Peradeniya,"Live performances, food stalls, and family activities.",500,400,7.254623,80.642231,4.8,6,26.71,outdoor
Annual Tech Summit in Kandy,Art & Craft,20-Jun-26,17:15,Kandy Regency Hotel,"174 Market Lane, Kandy",Festival Lanka,An outdoor celebration showcasing local culture and crafts.,100,400,7.279413,80.590464,5,8,26.29,"professional,family"
Open Job Fair in Kandy,Business Expo,27-Mar-26,10:00,Kandy Regency Hotel,"9 Hill Street, Kandy",Kandy Youth Network,A community-focused event bringing together locals and visitors.,2000,75,7.267783,80.650228,4.5,13,32.43,networking
Grand Business Meetup in Kandy,Business Expo,28-Oct-24,17:30,Riverbank Event Space,"61 Main Street, Kandy",University of Peradeniya,"Live performances, food stalls, and family activities.",2000,300,7.277708,80.632916,4.9,29,30,"indoor,professional"
Weekly Food Festival in Kandy,Networking,5-Nov-26,13:00,Kandy Lakefront Hall,"143 Garden Avenue, Kandy",Local Artists Collective,Hands-on workshop suitable for beginners and professionals.,300,400,7.308505,80.603724,4.2,714,48.71,networking
Monthly Art Fair in Kandy,Market,28-May-24,7:45,Kandy Art Gallery,"16 Lake Road, Kandy",Lanka Events Co.,An outdoor celebration showcasing local culture and crafts.,2000,250,7.305105,80.623358,5,5,24.57,"indoor,kids,free"
Community Yoga Session in Kandy,Business Conference,23-Oct-26,12:15,Kandy Municipal Grounds,"173 Hill Street, Kandy",Festival Lanka,An informative session with expert speakers and networking opportunities.,1500,750,7.278999,80.641557,4.9,60,32.86,"kids,student,registration"
Monthly Business Meetup in Kandy,Business Conference,12-Apr-24,16:30,University of Peradeniya Lecture Theatre,"155 Market Lane, Kandy",Kandy Sports Association,An informative session with expert speakers and networking opportunities.,1000,750,7.271636,80.652138,5,6,24.43,free
Open Tech Summit in Kandy,Education,30-May-24,8:15,Kandy Regency Hotel,"25 Temple Road, Kandy",Kandy Tourism Board,"Live performances, food stalls, and family activities.",0,300,7.314943,80.623123,4,5,36.43,"family,paid,student"
Grand Handicraft Market in Kandy,Religious,4-Aug-24,20:15,Kandy Regency Hotel,"44 Temple Road, Kandy",Heritage Kandy,Hands-on workshop suitable for beginners and professionals.,2000,400,7.242812,80.614979,5,7,34,tickets_required
Open Job Fair in Kandy,Networking,26-Jul-26,19:30,Local Community Hall,"59 Peradeniya Road, Kandy",Kandy Tourism Board,An informative session with expert speakers and networking opportunities.,300,200,7.247164,80.611551,4.1,229,28.29,"indoor,professional"
Weekly Business Meetup in Kandy,Education,4-Sep-25,15:00,Kandy Art Gallery,"153 Lake Road, Kandy",Kandy Youth Network,An informative session with expert speakers and networking opportunities.,0,500,7.303741,80.628375,4.5,10,35,"networking,student,registration"
Monthly Coding Workshop in Kandy,Sports Event,4-Jul-26,13:30,Bogambara Stadium,"137 Peradeniya Road, Kandy",Peradeniya Botanical Events,An outdoor celebration showcasing local culture and crafts.,0,100,7.261506,80.60316,4.9,33,27.71,"indoor,registration"
Annual Business Meetup in Kandy,Religious,8-Nov-23,7:00,Temple of the Tooth Grounds,"69 Lake Road, Kandy",Kandy Cultural Society,"Live performances, food stalls, and family activities.",0,100,7.297216,80.640897,4.9,22,24.57,"indoor,professional"
Weekly Cricket Match in Kandy,Theatre,14-Jun-23,10:00,Kandy City Centre Auditorium,"19 Hill Street, Kandy",Kandy Sports Association,Hands-on workshop suitable for beginners and professionals.,1500,50,7.277612,80.603453,4.5,6,24.43,free
Monthly Business Meetup in Kandy,Theatre,25-Sep-26,12:45,Peradeniya Botanical Gardens Lawn,"83 Lake Road, Kandy",Sri Lanka Conference Org,"Live performances, food stalls, and family activities.",200,200,7.290333,80.592953,5,6,37.57,networking
Weekly Business Meetup in Kandy,Business Conference,8-Jun-25,16:00,Kandy Regency Hotel,"150 Temple Road, Kandy",Kandy Tourism Board,An informative session with expert speakers and networking opportunities.,2000,750,7.271665,80.607016,4.5,642,47.43,professional
Monthly Art Fair in Kandy,Academic Seminar,4-Jul-26,7:00,Temple of the Tooth Grounds,"180 Hill Street, Kandy",Mahaweli Event Planners,A community-focused event bringing together locals and visitors.,0,500,7.303317,80.598808,3.7,138,46,"student,kids,family"
Local Book Reading in Kandy,Film Screening,18-Dec-26,20:30,Kandy City Centre Auditorium,"48 Hill Street, Kandy",Kandy Foodies Club,An outdoor celebration showcasing local culture and crafts.,0,750,7.267813,80.641268,5,2,34.86,professional
Monthly Art Fair in Kandy,Art & Craft,21-Jan-25,20:00,Kandy Sports Complex,"5 Hill Street, Kandy",Sri Lanka Conference Org,An outdoor celebration showcasing local culture and crafts.,0,75,7.308546,80.644321,5,31,22.29,"professional,tickets_required,family"
Annual Handicraft Market in Kandy,Cultural Festival,21-Oct-24,9:00,Mahaweli Reach Hotel Conference Room,"34 Lake Road, Kandy",Kandy Tourism Board,An outdoor celebration showcasing local culture and crafts.,200,50,7.309879,80.604146,4.3,40,44.29,"registration,indoor,free"
Weekly Startup Pitch in Kandy,Religious,3-Mar-24,21:00,Bogambara Stadium,"16 Main Street, Kandy",Kandy Cultural Society,A community-focused event bringing together locals and visitors.,1000,50,7.284642,80.655677,1,1,27.71,"paid,outdoor"
Grand Startup Pitch in Kandy,Business Conference,28-Feb-25,12:15,Kandy Regency Hotel,"46 Hill Street, Kandy",Sri Lanka Conference Org,A community-focused event bringing together locals and visitors.,0,1000,7.299936,80.619063,5,13,25.71,family
Grand Yoga Session in Kandy,Food Event,20-Nov-23,20:30,Temple of the Tooth Grounds,"96 Garden Avenue, Kandy",Kandy Tourism Board,An outdoor celebration showcasing local culture and crafts.,500,750,7.301135,80.620141,3.3,16,30.29,"indoor,kids,professional"
Community Music Night in Kandy,Business Expo,12-Mar-23,15:00,Kandy Town Hall,"77 Lake Road, Kandy",Heritage Kandy,A community-focused event bringing together locals and visitors.,750,500,7.257186,80.612043,4,1,28.43,"kids,family"
Weekly Business Meetup in Kandy,Sports Event,7-Apr-26,13:15,Kandy Municipal Grounds,"24 Hill Street, Kandy",Mahaweli Event Planners,A community-focused event bringing together locals and visitors.,1000,400,7.271984,80.654252,5,4,26.57,"networking,indoor,free"
Weekly Tech Summit in Kandy,Business Conference,15-Nov-24,17:45,Kandy City Centre Auditorium,"198 Lake Road, Kandy",Mahaweli Event Planners,"Live performances, food stalls, and family activities.",1500,50,7.299814,80.649463,4,1,24.14,"registration,family,kids"
Open Business Meetup in Kandy,Educational Workshop,15-Mar-25,20:00,Kandy City Centre Auditorium,"101 Lake Road, Kandy",Kandy Tourism Board,Hands-on workshop suitable for beginners and professionals.,100,500,7.250575,80.595778,5,2,30.67,"student,family,registration"
Annual Business Meetup in Kandy,Food Event,20-Mar-25,12:15,Kandy Cultural Centre,"199 Garden Avenue, Kandy",Kandy Foodies Club,"Live performances, food stalls, and family activities.",0,1000,7.265873,80.65469,5,1,33.14,kids
Grand Art Fair in Kandy,Networking,16-Sep-24,11:30,Kandy Town Hall,"113 Temple Road, Kandy",Kandy Youth Network,An outdoor celebration showcasing local culture and crafts.,300,75,7.313937,80.606344,5,1,27.57,indoor
Local Coding Workshop in Kandy,Cultural Festival,10-Jul-25,21:00,Peradeniya Botanical Gardens Lawn,"138 Lake Road, Kandy",Lanka Events Co.,An outdoor celebration showcasing local culture and crafts.,0,400,7.256304,80.626629,4.4,5,27.43,"tickets_required,free,indoor"
Monthly Music Night in Kandy,Music Event,27-Nov-26,14:00,Nawaloka Hall,"18 Garden Avenue, Kandy",Kandy Music Circle,An informative session with expert speakers and networking opportunities.,1000,75,7.29283,80.636409,5,1,29.29,"tickets_required,paid"
Annual Food Festival in Kandy,Theatre,17-Jan-24,12:45,Kandy Open-Air Stage,"136 Main Street, Kandy",University of Peradeniya,An informative session with expert speakers and networking opportunities.,0,250,7.266686,80.617538,4,2,30.57,"indoor,free,networking"
Open Startup Pitch in Kandy,Film Screening,27-Jul-24,13:15,Kandy Town Hall,"36 Temple Road, Kandy",Sri Lanka Conference Org,"Live performances, food stalls, and family activities.",500,300,7.298391,80.62645,5,1,31.43,"kids,professional,tickets_required"
Monthly Coding Workshop in Kandy,Religious,13-Jan-26,12:15,Kandy Lakefront Hall,"135 Lake Road, Kandy",Local Artists Collective,An informative session with expert speakers and networking opportunities.,300,250,7.274405,80.65363,5,1,21.86,"family,free"
Weekly Food Festival in Kandy,Film Screening,13-Sep-24,20:30,Mahaweli Reach Hotel Conference Room,"28 Lake Road, Kandy",Peradeniya Botanical Events,A community-focused event bringing together locals and visitors.,750,750,7.25478,80.643371,5,1,33.71,"paid,professional"
Open Film Night in Kandy,Food Event,23-Aug-26,17:15,Kandy Art Gallery,"36 Lake Road, Kandy",Heritage Kandy,An informative session with expert speakers and networking opportunities.,100,200,7.255461,80.592256,3,2,32.71,family
Open Cultural Show in Kandy,Art & Craft,27-Oct-24,20:15,Kandy Art Gallery,"11 Hill Street, Kandy",Heritage Kandy,A community-focused event bringing together locals and visitors.,100,500,7.298827,80.616626,5,2,34.86,tickets_required
Community Film Night in Kandy,Education,4-Mar-25,22:00,Kandy City Centre Auditorium,"102 Main Street, Kandy",Sri Lanka Conference Org,Hands-on workshop suitable for beginners and professionals.,0,200,7.301894,80.610014,5,1,27.14,"professional,paid,tickets_required"
Community Film Night in Kandy,Educational Workshop,26-Nov-26,10:45,Riverbank Event Space,"7 Lake Road, Kandy",Mahaweli Event Planners,A community-focused event bringing together locals and visitors.,2000,75,7.276294,80.652763,5,24,29.43,paid
Grand Cricket Match in Kandy,Academic Seminar,8-Dec-25,18:15,Kandy Municipal Grounds,"12 Peradeniya Road, Kandy",University of Peradeniya,Hands-on workshop suitable for beginners and professionals.,300,100,7.253671,80.613464,4.5,10,36.71,"indoor,professional"
Annual Film Night in Kandy,Academic Seminar,27-Sep-23,12:00,University of Peradeniya Lecture Theatre,"128 Peradeniya Road, Kandy",University of Peradeniya,Hands-on workshop suitable for beginners and professionals.,2000,150,7.279891,80.646522,5,1,29,"paid,registration"
Local Music Night in Kandy,Religious,23-Jun-26,12:00,Kandy Open-Air Stage,"168 Main Street, Kandy",Lanka Events Co.,Hands-on workshop suitable for beginners and professionals.,750,250,7.242938,80.649768,5,2,41.29,family
Annual Tech Summit in Kandy,Networking,25-Feb-26,11:45,Riverbank Event Space,"197 Main Street, Kandy",Kandy Youth Network,An informative session with expert speakers and networking opportunities.,1500,500,7.265826,80.652827,4.2,62,43.71,indoor
Grand Coding Workshop in Kandy,Food Event,5-Mar-24,12:00,Mahaweli Reach Hotel Conference Room,"162 Hill Street, Kandy",Sri Lanka Conference Org,An outdoor celebration showcasing local culture and crafts.,750,300,7.318975,80.623856,5,4,27,"kids,family,professional"
Annual Tech Summit in Kandy,Theatre,2-Jun-26,13:30,University of Peradeniya Lecture Theatre,"7 Garden Avenue, Kandy",Mahaweli Event Planners,An outdoor celebration showcasing local culture and crafts.,1500,300,7.290037,80.598255,4.1,229,32.33677027,"outdoor,free,networking"
Annual Startup Pitch in Kandy,Sports Event,6-Sep-24,22:30,Bogambara Stadium,"86 Main Street, Kandy",Lanka Events Co.,Hands-on workshop suitable for beginners and professionals.,300,150,7.271684,80.629825,5,3,27.14,networking
Monthly Music Night in Kandy,Theatre,1-Aug-25,16:45,Kandy Lakefront Hall,"134 Main Street, Kandy",Kandy Tourism Board,An informative session with expert speakers and networking opportunities.,100,150,7.285195,80.637474,4.5,11,32,"free,kids"
Weekly Cultural Show in Kandy,Academic Seminar,6-Dec-23,18:15,Kandy Open-Air Stage,"193 Main Street, Kandy",Festival Lanka,"Live performances, food stalls, and family activities.",0,300,7.296421,80.612015,5,5,32.43,"indoor,outdoor"
Grand Music Night in Kandy,Educational Workshop,18-Mar-23,12:00,Peradeniya Botanical Gardens Lawn,"124 Hill Street, Kandy",Kandy Sports Association,An informative session with expert speakers and networking opportunities.,750,250,7.252326,80.613808,4.1,255,32.33677027,free
Community Film Night in Kandy,Business Expo,9-Jan-23,15:00,Ramada Kandy Banquet,"12 Temple Road, Kandy",University of Peradeniya,An informative session with expert speakers and networking opportunities.,750,1000,7.281646,80.636129,4,408,55,"indoor,tickets_required"
Community Tech Summit in Kandy,Market,29-Aug-23,14:15,Local Community Hall,"4 Hill Street, Kandy",Kandy Tourism Board,An informative session with expert speakers and networking opportunities.,1000,200,7.28477,80.597166,3.7,46,41.86,paid
Open Startup Pitch in Kandy,Networking,27-Jun-25,7:15,Temple of the Tooth Grounds,"13 Temple Road, Kandy",Sri Lanka Conference Org,An informative session with expert speakers and networking opportunities.,2000,750,7.270688,80.596028,5,2,21.86,"networking,tickets_required,paid"
Community Startup Pitch in Kandy,Networking,1-Dec-26,20:00,Kandy Lakefront Hall,"165 Market Lane, Kandy",University of Peradeniya,An informative session with expert speakers and networking opportunities.,300,750,7.301319,80.622938,3,4,36.86,"networking,kids,registration"
Open Handicraft Market in Kandy,Theatre,31-Aug-25,9:30,Kandy Town Hall,"44 Main Street, Kandy",University of Peradeniya,An outdoor celebration showcasing local culture and crafts.,0,75,7.301435,80.632311,5,49,21.5,"paid,indoor,tickets_required"
Open Tech Summit in Kandy,Business Expo,3-May-24,13:15,Riverbank Event Space,"88 Lake Road, Kandy",Peradeniya Botanical Events,A community-focused event bringing together locals and visitors.,1500,750,7.305113,80.631368,4.7,398,32.33677027,"registration,professional,paid"
Annual Book Reading in Kandy,Cultural Festival,30-Jun-25,11:30,Kandy Open-Air Stage,"28 Market Lane, Kandy",University of Peradeniya,An informative session with expert speakers and networking opportunities.,2000,1000,7.305125,80.643994,5,3,28.43,"networking,free,family"
Monthly Yoga Session in Kandy,Theatre,9-Mar-25,20:15,Kandy Open-Air Stage,"77 Hill Street, Kandy",Lanka Events Co.,Hands-on workshop suitable for beginners and professionals.,1500,250,7.303548,80.637569,4.8,5,32.33677027,indoor
Weekly Music Night in Kandy,Cultural Festival,2-Jan-23,17:00,Kandy Open-Air Stage,"61 Garden Avenue, Kandy",Kandy Cultural Society,An informative session with expert speakers and networking opportunities.,1500,300,7.296178,80.617599,5,27,32.33677027,"family,professional,networking"
Weekly Startup Pitch in Kandy,Food Event,7-Jan-25,19:15,Pallekele International Cricket Stadium,"33 Lake Road, Kandy",Festival Lanka,An informative session with expert speakers and networking opportunities.,0,400,7.240928,80.635387,5,2,32.33677027,"student,professional,networking"
Local Art Fair in Kandy,Theatre,4-Feb-26,20:45,Ramada Kandy Banquet,"109 Hill Street, Kandy",Peradeniya Botanical Events,A community-focused event bringing together locals and visitors.,750,300,7.240594,80.624871,4.4,37,31.71,"professional,kids,paid"
Grand Book Reading in Kandy,Education,14-Dec-25,14:45,Bogambara Stadium,"23 Lake Road, Kandy",Kandy Municipal Council,"Live performances, food stalls, and family activities.",200,1000,7.277796,80.641918,5,1,29.86,"free,professional,registration"
Annual Coding Workshop in Kandy,Networking,23-Dec-24,15:30,Temple of the Tooth Grounds,"153 Market Lane, Kandy",Peradeniya Botanical Events,A community-focused event bringing together locals and visitors.,0,1000,7.264326,80.644952,4.4,121,33,"indoor,registration,free"
Local Book Reading in Kandy,Theatre,1-Nov-25,8:30,Bogambara Stadium,"72 Main Street, Kandy",Kandy Municipal Council,An informative session with expert speakers and networking opportunities.,0,100,7.308629,80.590994,4.2,188,29,"outdoor,professional"
Grand Handicraft Market in Kandy,Market,9-Mar-23,16:00,Ramada Kandy Banquet,"40 Peradeniya Road, Kandy",Festival Lanka,An outdoor celebration showcasing local culture and crafts.,500,1000,7.279676,80.659551,4.3,6,29.86,"kids,free,indoor"
Monthly Cultural Show in Kandy,Music Event,27-Mar-25,21:30,University of Peradeniya Lecture Theatre,"137 Lake Road, Kandy",Kandy Foodies Club,Hands-on workshop suitable for beginners and professionals.,300,500,7.270384,80.639393,4.2,27,47.71,"networking,kids"
Community Business Meetup in Kandy,Business Conference,25-Dec-24,19:30,Kandy Open-Air Stage,"26 Main Street, Kandy",Kandy Tourism Board,An informative session with expert speakers and networking opportunities.,500,1000,7.292347,80.617381,4.8,8,26.43,"tickets_required,free"
Community Food Festival in Kandy,Art & Craft,22-Apr-25,9:00,Bogambara Stadium,"186 Main Street, Kandy",Kandy Cultural Society,A community-focused event bringing together locals and visitors.,100,750,7.260152,80.592383,4.8,14,43.33,"family,student,networking"
Community Cultural Show in Kandy,Education,26-Aug-24,20:00,University of Peradeniya Lecture Theatre,"110 Market Lane, Kandy",Lanka Events Co.,Hands-on workshop suitable for beginners and professionals.,300,75,7.312271,80.643892,2.2,6,34.86,"free,indoor"
Monthly Film Night in Kandy,Educational Workshop,4-Oct-25,12:45,Local Community Hall,"28 Lake Road, Kandy",University of Peradeniya,A community-focused event bringing together locals and visitors.,200,400,7.283251,80.620188,4.4,16,26.29,registration
Monthly Cricket Match in Kandy,Market,16-Oct-25,10:00,Local Community Hall,"69 Lake Road, Kandy",Kandy Cultural Society,An outdoor celebration showcasing local culture and crafts.,2000,400,7.296004,80.653323,4.2,144,26,free
Open Music Night in Kandy,Education,7-Mar-26,17:30,Kandy Art Gallery,"162 Market Lane, Kandy",University of Peradeniya,An outdoor celebration showcasing local culture and crafts.,200,400,7.247253,80.627424,5,1,23.86,student
Monthly Film Night in Kandy,Sports Event,7-Aug-23,17:45,Pallekele International Cricket Stadium,"189 Lake Road, Kandy",Mahaweli Event Planners,"Live performances, food stalls, and family activities.",500,400,7.251195,80.603516,4.8,21,38,"tickets_required,professional"
Local Cultural Show in Kandy,Music Event,22-Nov-24,7:45,Temple of the Tooth Grounds,"168 Market Lane, Kandy",Kandy Cultural Society,An informative session with expert speakers and networking opportunities.,300,750,7.28185,80.655806,3,1,32.33677027,"networking,free"
Monthly Music Night in Kandy,Film Screening,7-Dec-26,10:00,Kandy City Centre Auditorium,"79 Peradeniya Road, Kandy",Kandy Music Circle,Hands-on workshop suitable for beginners and professionals.,0,750,7.303496,80.621933,5,1,26.86,"registration,outdoor,paid"
Monthly Book Reading in Kandy,Business Expo,21-Oct-26,18:30,Temple of the Tooth Grounds,"140 Lake Road, Kandy",Kandy Youth Network,A community-focused event bringing together locals and visitors.,0,50,7.265727,80.657528,4.3,4,36.43,"family,student"
Local Tech Summit in Kandy,Education,4-Dec-23,20:15,Kandy Municipal Grounds,"162 Hill Street, Kandy",Sri Lanka Conference Org,An outdoor celebration showcasing local culture and crafts.,200,50,7.27009,80.601043,4.8,35,32.71,"student,professional"
Local Art Fair in Kandy,Religious,8-Jul-24,22:45,Kandy Lakefront Hall,"157 Market Lane, Kandy",Kandy Tourism Board,A community-focused event bringing together locals and visitors.,200,1000,7.24301,80.6026,5,4,32.33677027,"outdoor,networking,paid"
Weekly Startup Pitch in Kandy,Networking,10-Jan-26,22:15,Kandy Municipal Grounds,"169 Lake Road, Kandy",Festival Lanka,A community-focused event bringing together locals and visitors.,2000,400,7.262114,80.60356,4.5,2,32.33677027,"kids,indoor,outdoor"
Grand Art Fair in Kandy,Sports Event,17-Jul-25,7:00,Temple of the Tooth Grounds,"41 Peradeniya Road, Kandy",Local Artists Collective,An informative session with expert speakers and networking opportunities.,0,150,7.242325,80.626043,5,91,37.57,"networking,kids,outdoor"
Local Tech Summit in Kandy,Cultural Festival,30-Apr-24,19:15,Kandy Regency Hotel,"121 Hill Street, Kandy",University of Peradeniya,"Live performances, food stalls, and family activities.",0,750,7.278753,80.652334,5,83,23.29,professional
Monthly Book Reading in Kandy,Academic Seminar,19-Feb-24,16:15,Kandy Municipal Grounds,"16 Main Street, Kandy",Lanka Events Co.,An informative session with expert speakers and networking opportunities.,300,250,7.25092,80.649616,4.9,37,39.71,"registration,family,tickets_required"
Weekly Film Night in Kandy,Business Conference,4-Dec-25,21:15,Mahaweli Reach Hotel Conference Room,"72 Temple Road, Kandy",Festival Lanka,An informative session with expert speakers and networking opportunities.,0,250,7.298401,80.641533,4.8,13,32.33677027,"free,student,networking"
Weekly Cultural Show in Kandy,Theatre,21-May-25,22:45,Ramada Kandy Banquet,"179 Peradeniya Road, Kandy",Kandy Cultural Society,"Live performances, food stalls, and family activities.",0,50,7.24784,80.62467,5,1,37.4,"outdoor,paid"
Open Cultural Show in Kandy,Theatre,11-Dec-26,20:00,Nawaloka Hall,"36 Peradeniya Road, Kandy",Kandy Municipal Council,"Live performances, food stalls, and family activities.",2000,1000,7.296251,80.602946,3.7,17,32.71,"free,indoor,student"
Grand Startup Pitch in Kandy,Education,29-Feb-24,8:30,Kandy Open-Air Stage,"94 Temple Road, Kandy",Local Artists Collective,An informative session with expert speakers and networking opportunities.,1000,250,7.248877,80.615591,4.3,18,30.43,kids
Community Business Meetup in Kandy,Food Event,6-Sep-25,12:15,Peradeniya Botanical Gardens Lawn,"129 Market Lane, Kandy",Kandy Tourism Board,Hands-on workshop suitable for beginners and professionals.,2000,400,7.273834,80.593812,4,2,32.33677027,"tickets_required,networking,indoor"
Annual Tech Summit in Kandy,Networking,10-Oct-26,8:15,Kandy Municipal Grounds,"101 Lake Road, Kandy",Kandy Youth Network,An informative session with expert speakers and networking opportunities.,0,200,7.26307,80.656964,4,4,32.33677027,tickets_required
Open Film Night in Kandy,Sports Event,13-Jan-26,10:45,Mahaweli Reach Hotel Conference Room,"189 Market Lane, Kandy",Kandy Tourism Board,An outdoor celebration showcasing local culture and crafts.,0,150,7.241719,80.603234,4.4,130,32.33677027,"networking,kids"
Grand Art Fair in Kandy,Networking,28-Jan-26,20:45,Ramada Kandy Banquet,"79 Lake Road, Kandy",Festival Lanka,Hands-on workshop suitable for beginners and professionals.,750,50,7.303141,80.605875,5,1,19.14,registration
Local Tech Summit in Kandy,Education,9-Jan-24,11:15,Kandy Open-Air Stage,"11 Main Street, Kandy",Lanka Events Co.,An informative session with expert speakers and networking opportunities.,500,500,7.285962,80.620862,5,5,25,"professional,tickets_required"
Open Yoga Session in Kandy,Food Event,21-Feb-23,18:45,Nawaloka Hall,"40 Temple Road, Kandy",University of Peradeniya,Hands-on workshop suitable for beginners and professionals.,750,400,7.317612,80.62823,5,1,33,"paid,professional"
Open Yoga Session in Kandy,Educational Workshop,22-Sep-24,6:45,Kandy Open-Air Stage,"24 Main Street, Kandy",University of Peradeniya,An outdoor celebration showcasing local culture and crafts.,500,200,7.244403,80.634892,5,2,32.33677027,"networking,paid"
Open Art Fair in Kandy,Religious,20-May-26,22:00,Kandy Art Gallery,"184 Peradeniya Road, Kandy",Kandy Sports Association,An outdoor celebration showcasing local culture and crafts.,0,250,7.274211,80.617028,4.3,6,29.57,outdoor
Monthly Cricket Match in Kandy,Education,25-Jun-25,15:15,Mahaweli Reach Hotel Conference Room,"36 Peradeniya Road, Kandy",Kandy Youth Network,An outdoor celebration showcasing local culture and crafts.,0,400,7.286974,80.596025,5,1,30.86,"paid,free"
Local Handicraft Market in Kandy,Academic Seminar,25-Dec-23,20:15,Kandy Sports Complex,"98 Main Street, Kandy",Peradeniya Botanical Events,A community-focused event bringing together locals and visitors.,750,400,7.284309,80.592956,5,17,33.29,family
Open Coding Workshop in Kandy,Sports Event,1-Sep-26,15:45,Kandy Art Gallery,"166 Lake Road, Kandy",University of Peradeniya,Hands-on workshop suitable for beginners and professionals.,200,750,7.242275,80.64353,4.9,16,33.29,"networking,professional"
Grand Music Night in Kandy,Cultural Festival,24-Mar-26,6:30,Ramada Kandy Banquet,"38 Main Street, Kandy",Heritage Kandy,A community-focused event bringing together locals and visitors.,100,200,7.276884,80.63853,5,1,28.43,"indoor,tickets_required"
Grand Yoga Session in Kandy,Food Event,10-Jul-26,11:00,Kandy Cultural Centre,"81 Peradeniya Road, Kandy",Kandy Youth Network,"Live performances, food stalls, and family activities.",0,250,7.3076,80.645991,5,1,25.57,free
Annual Food Festival in Kandy,Food Event,20-Sep-25,19:30,Nawaloka Hall,"40 Hill Street, Kandy",Kandy Sports Association,An informative session with expert speakers and networking opportunities.,200,300,7.257689,80.603189,5,10,33.29,professional
Monthly Business Meetup in Kandy,Sports Event,24-Jun-25,22:30,Kandy Municipal Grounds,"8 Market Lane, Kandy",Kandy Municipal Council,An informative session with expert speakers and networking opportunities.,300,150,7.305166,80.605565,3.6,5,32.33677027,student
Annual Music Night in Kandy,Business Conference,18-Sep-25,19:00,Kandy Town Hall,"169 Hill Street, Kandy",Kandy Youth Network,A community-focused event bringing together locals and visitors.,100,75,7.287454,80.622836,5,5,29,"outdoor,registration,networking"
Community Art Fair in Kandy,Academic Seminar,5-Jul-23,10:30,Kandy Municipal Grounds,"129 Peradeniya Road, Kandy",Kandy Cultural Society,An informative session with expert speakers and networking opportunities.,200,750,7.298284,80.606928,4.9,7,32.33677027,"family,tickets_required"
Monthly Book Reading in Kandy,Education,14-Mar-24,22:45,Peradeniya Botanical Gardens Lawn,"48 Garden Avenue, Kandy",Mahaweli Event Planners,Hands-on workshop suitable for beginners and professionals.,1500,300,7.293882,80.597513,4.7,7,32.33677027,kids
Grand Coding Workshop in Kandy,Theatre,6-Oct-23,21:30,Peradeniya Botanical Gardens Lawn,"11 Temple Road, Kandy",Sri Lanka Conference Org,An outdoor celebration showcasing local culture and crafts.,0,750,7.266249,80.598101,5,3,32.33677027,"indoor,student"
Monthly Film Night in Kandy,Art & Craft,1-Sep-25,17:15,Bogambara Stadium,"173 Temple Road, Kandy",Mahaweli Event Planners,A community-focused event bringing together locals and visitors.,200,100,7.27171,80.626586,5,8,36,"family,paid,kids"
Monthly Film Night in Kandy,Cultural Festival,7-Apr-25,9:15,Kandy Cultural Centre,"72 Peradeniya Road, Kandy",Local Artists Collective,An outdoor celebration showcasing local culture and crafts.,0,1000,7.29708,80.630734,5,31,32.33677027,"professional,tickets_required"
Local Startup Pitch in Kandy,Educational Workshop,8-Sep-23,14:45,Local Community Hall,"35 Temple Road, Kandy",University of Peradeniya,An outdoor celebration showcasing local culture and crafts.,0,1000,7.247968,80.5937,4.3,6,32.33677027,"kids,family,indoor"
Community Startup Pitch in Kandy,Market,30-Nov-25,21:45,Bogambara Stadium,"128 Garden Avenue, Kandy",Kandy Tourism Board,Hands-on workshop suitable for beginners and professionals.,100,50,7.280384,80.627971,5,16,32.33677027,"student,professional"
Open Art Fair in Kandy,Music Event,14-Feb-26,15:15,Kandy City Centre Auditorium,"80 Market Lane, Kandy",Kandy Municipal Council,An outdoor celebration showcasing local culture and crafts.,2000,1000,7.271126,80.643481,5,1,28.29,tickets_required
Community Music Night in Kandy,Business Expo,25-Apr-26,18:30,Kandy Sports Complex,"8 Hill Street, Kandy",Kandy Foodies Club,Hands-on workshop suitable for beginners and professionals.,100,1000,7.243609,80.648585,5,1,37,"kids,student"
Weekly Business Meetup in Kandy,Music Event,25-Apr-24,15:00,Kandy Regency Hotel,"30 Main Street, Kandy",Kandy Music Circle,"Live performances, food stalls, and family activities.",0,1000,7.253582,80.627689,5,3,32.33677027,professional
Annual Coding Workshop in Kandy,Cultural Festival,10-Mar-25,16:00,Pallekele International Cricket Stadium,"173 Lake Road, Kandy",Local Artists Collective,An informative session with expert speakers and networking opportunities.,1000,100,7.266877,80.625194,5,10,32.33677027,"networking,paid"
Monthly Handicraft Market in Kandy,Sports Event,31-Aug-24,18:15,Kandy Sports Complex,"149 Temple Road, Kandy",Kandy Cultural Society,"Live performances, food stalls, and family activities.",2000,300,7.287349,80.609136,4.5,4,27.43,"indoor,student,tickets_required"
Annual Startup Pitch in Kandy,Religious,29-May-24,22:45,Mahaweli Reach Hotel Conference Room,"181 Hill Street, Kandy",Peradeniya Botanical Events,An outdoor celebration showcasing local culture and crafts.,0,400,7.309017,80.630379,2.5,16,32.33677027,"networking,free,tickets_required"
Open Yoga Session in Kandy,Cultural Festival,7-May-24,10:30,Local Community Hall,"17 Market Lane, Kandy",Kandy Municipal Council,A community-focused event bringing together locals and visitors.,300,200,7.256285,80.618871,5,11,36.86,outdoor
Local Art Fair in Kandy,Religious,21-Sep-25,19:45,Nawaloka Hall,"70 Lake Road, Kandy",Kandy Foodies Club,A community-focused event bringing together locals and visitors.,0,500,7.242331,80.645277,5,7,32.33677027,paid
Open Handicraft Market in Kandy,Networking,11-May-23,19:30,Nawaloka Hall,"186 Peradeniya Road, Kandy",Festival Lanka,A community-focused event bringing together locals and visitors.,200,500,7.251245,80.597835,4.7,3,34.57,registration
Local Art Fair in Kandy,Market,11-Apr-26,18:15,Temple of the Tooth Grounds,"28 Lake Road, Kandy",Kandy Sports Association,"Live performances, food stalls, and family activities.",100,400,7.257129,80.609218,5,1,24.43,"student,professional,outdoor"
Monthly Book Reading in Kandy,Film Screening,31-Aug-25,17:30,Kandy Lakefront Hall,"9 Peradeniya Road, Kandy",Kandy Sports Association,Hands-on workshop suitable for beginners and professionals.,0,1000,7.299156,80.645926,4.3,3,32.57,"networking,kids"
Community Business Meetup in Kandy,Food Event,25-Jun-25,18:00,Kandy Regency Hotel,"24 Peradeniya Road, Kandy",Festival Lanka,"Live performances, food stalls, and family activities.",300,400,7.300533,80.61082,5,10,32.33677027,professional
Monthly Business Meetup in Kandy,Education,12-Nov-24,19:00,Mahaweli Reach Hotel Conference Room,"130 Temple Road, Kandy",Mahaweli Event Planners,Hands-on workshop suitable for beginners and professionals.,1000,400,7.268149,80.632148,4.9,10,32.33677027,"family,free,student"
Local Job Fair in Kandy,Academic Seminar,25-Mar-26,8:00,Nawaloka Hall,"183 Peradeniya Road, Kandy",Kandy Sports Association,"Live performances, food stalls, and family activities.",1500,250,7.30645,80.643421,4.4,21,32.33677027,networking
Open Cricket Match in Kandy,Market,22-Jun-23,19:30,Nawaloka Hall,"147 Lake Road, Kandy",Kandy Music Circle,An informative session with expert speakers and networking opportunities.,500,75,7.241659,80.591608,5,4,32.33677027,student
Annual Coding Workshop in Kandy,Networking,2-Jul-23,17:15,Kandy Sports Complex,"135 Garden Avenue, Kandy",Kandy Municipal Council,"Live performances, food stalls, and family activities.",2000,75,7.301869,80.65498,5,2,32.33677027,"professional,student"
Local Cricket Match in Kandy,Business Expo,17-Mar-24,15:15,Kandy Cultural Centre,"38 Temple Road, Kandy",Local Artists Collective,Hands-on workshop suitable for beginners and professionals.,500,250,7.263215,80.608326,4.5,2,32.33677027,kids
Annual Job Fair in Kandy,Academic Seminar,24-Feb-25,19:30,Kandy Cultural Centre,"16 Temple Road, Kandy",Heritage Kandy,"Live performances, food stalls, and family activities.",100,50,7.266629,80.606439,4.9,31,38.71,"networking,kids"
Grand Film Night in Kandy,Film Screening,3-Apr-26,11:30,Kandy Open-Air Stage,"87 Garden Avenue, Kandy",Kandy Cultural Society,An informative session with expert speakers and networking opportunities.,300,200,7.250554,80.612212,4.9,35,32.33677027,"indoor,kids"
Local Yoga Session in Kandy,Sports Event,24-Jun-24,22:30,Kandy Sports Complex,"189 Garden Avenue, Kandy",Local Artists Collective,An informative session with expert speakers and networking opportunities.,2000,50,7.301094,80.600589,4.2,26,42.43,free
Annual Film Night in Kandy,Sports Event,14-Aug-25,19:00,University of Peradeniya Lecture Theatre,"92 Market Lane, Kandy",Heritage Kandy,An informative session with expert speakers and networking opportunities.,0,100,7.284868,80.622043,4.1,39,40.29,"family,networking"
Annual Food Festival in Kandy,Networking,10-Apr-26,6:15,Riverbank Event Space,"197 Garden Avenue, Kandy",Kandy Music Circle,An outdoor celebration showcasing local culture and crafts.,0,1000,7.294153,80.652116,4.5,34,37.43,kids
Grand Startup Pitch in Kandy,Music Event,20-Dec-26,21:45,Bogambara Stadium,"2 Main Street, Kandy",Kandy Foodies Club,"Live performances, food stalls, and family activities.",1000,750,7.317582,80.635932,4.1,20,38,"free,paid"
Annual Handicraft Market in Kandy,Business Conference,31-Dec-23,13:45,Pallekele International Cricket Stadium,"54 Lake Road, Kandy",Lanka Events Co.,"Live performances, food stalls, and family activities.",300,75,7.27108,80.618168,4,2,37.14,"registration,family,kids"
Open Business Meetup in Kandy,Art & Craft,14-Feb-24,21:45,Kandy Municipal Grounds,"145 Hill Street, Kandy",Sri Lanka Conference Org,An outdoor celebration showcasing local culture and crafts.,300,300,7.273846,80.642954,4.1,264,46.71,"professional,outdoor"
Open Cricket Match in Kandy,Film Screening,13-Jul-26,22:00,Kandy Art Gallery,"21 Peradeniya Road, Kandy",Sri Lanka Conference Org,"Live performances, food stalls, and family activities.",0,200,7.278209,80.600402,4.2,5,35.14,"free,tickets_required,paid"
Monthly Coding Workshop in Kandy,Food Event,20-May-25,19:00,Peradeniya Botanical Gardens Lawn,"146 Peradeniya Road, Kandy",Sri Lanka Conference Org,An informative session with expert speakers and networking opportunities.,0,500,7.26027,80.60784,5,1,31.29,student
Weekly Startup Pitch in Kandy,Business Conference,13-Dec-26,15:30,Mahaweli Reach Hotel Conference Room,"116 Hill Street, Kandy",Mahaweli Event Planners,"Live performances, food stalls, and family activities.",300,150,7.304627,80.613893,5,4,31.71,"paid,student,tickets_required"
Monthly Cricket Match in Kandy,Music Event,28-Jan-23,11:45,Pallekele International Cricket Stadium,"169 Market Lane, Kandy",University of Peradeniya,An informative session with expert speakers and networking opportunities.,1000,1000,7.288151,80.624071,3.7,7,35.71,free
Monthly Art Fair in Kandy,Business Conference,21-Jan-24,6:15,Kandy Town Hall,"167 Lake Road, Kandy",Heritage Kandy,Hands-on workshop suitable for beginners and professionals.,500,75,7.274863,80.633824,4.6,9,24.71,"free,paid"
Annual Handicraft Market in Kandy,Film Screening,9-Dec-26,20:45,Kandy Lakefront Hall,"116 Hill Street, Kandy",Heritage Kandy,Hands-on workshop suitable for beginners and professionals.,1500,50,7.25941,80.610638,4.5,273,37.86,"professional,registration"
Monthly Music Night in Kandy,Music Event,22-Sep-25,22:45,Kandy Art Gallery,"136 Temple Road, Kandy",Peradeniya Botanical Events,Hands-on workshop suitable for beginners and professionals.,0,1000,7.27376,80.61211,4.9,7,25.43,"networking,kids,professional"
Local Job Fair in Kandy,Music Event,29-Jan-24,21:30,University of Peradeniya Lecture Theatre,"57 Hill Street, Kandy",Lanka Events Co.,"Live performances, food stalls, and family activities.",2000,100,7.312726,80.613741,4.9,8,32.33677027,"family,registration"
Local Book Reading in Kandy,Sports Event,15-Sep-25,10:15,Bogambara Stadium,"126 Temple Road, Kandy",Kandy Tourism Board,"Live performances, food stalls, and family activities.",500,150,7.303479,80.656014,3.9,624,32.71,"kids,family"
Grand Food Festival in Kandy,Art & Craft,11-May-23,16:45,Ramada Kandy Banquet,"31 Hill Street, Kandy",Kandy Cultural Society,An outdoor celebration showcasing local culture and crafts.,1000,50,7.257928,80.608048,4,72,41.43,"networking,paid,free"
Grand Tech Summit in Kandy,Market,16-Aug-23,9:00,Local Community Hall,"43 Market Lane, Kandy",Festival Lanka,An informative session with expert speakers and networking opportunities.,750,400,7.249445,80.604377,5,1,32.33677027,"kids,networking,family"
Community Business Meetup in Kandy,Art & Craft,1-May-25,6:15,Kandy Cultural Centre,"130 Lake Road, Kandy",Kandy Foodies Club,Hands-on workshop suitable for beginners and professionals.,1000,1000,7.246819,80.616071,4.9,35,31.29,family
Open Art Fair in Kandy,Business Expo,28-Jul-25,22:30,Mahaweli Reach Hotel Conference Room,"198 Temple Road, Kandy",Mahaweli Event Planners,Hands-on workshop suitable for beginners and professionals.,0,250,7.29741,80.626214,3.9,184,47.29,student
Open Startup Pitch in Kandy,Academic Seminar,22-Mar-26,7:30,Kandy Lakefront Hall,"180 Hill Street, Kandy",Mahaweli Event Planners,Hands-on workshop suitable for beginners and professionals.,1000,50,7.309884,80.640509,5,8,33.29,"networking,outdoor"
Annual Music Night in Kandy,Education,21-Aug-26,18:15,Kandy Municipal Grounds,"138 Main Street, Kandy",Mahaweli Event Planners,"Live performances, food stalls, and family activities.",750,150,7.271199,80.640322,5,5,27.29,"kids,family,free"
Grand Tech Summit in Kandy,Film Screening,13-Jun-24,13:30,Kandy Open-Air Stage,"188 Temple Road, Kandy",Local Artists Collective,An outdoor celebration showcasing local culture and crafts.,200,50,7.307327,80.608183,4.2,404,32.33677027,"free,professional,kids"
Community Startup Pitch in Kandy,Market,9-Jul-26,13:30,Riverbank Event Space,"184 Hill Street, Kandy",Local Artists Collective,An informative session with expert speakers and networking opportunities.,500,75,7.293795,80.640005,4.3,72,59.2,"professional,paid"
Open Art Fair in Kandy,Education,23-Apr-25,8:00,Mahaweli Reach Hotel Conference Room,"122 Lake Road, Kandy",Festival Lanka,Hands-on workshop suitable for beginners and professionals.,1500,200,7.275693,80.615851,4.1,18,33.43,"student,family,registration"
Open Film Night in Kandy,Theatre,13-Dec-26,22:00,Local Community Hall,"9 Market Lane, Kandy",Kandy Municipal Council,"Live performances, food stalls, and family activities.",200,750,7.252547,80.629132,3.8,22,49.5,"indoor,free,tickets_required"
Annual Cultural Show in Kandy,Business Conference,5-Feb-25,15:30,Kandy Municipal Grounds,"37 Lake Road, Kandy",Lanka Events Co.,A community-focused event bringing together locals and visitors.,750,200,7.302703,80.619523,5,15,35.57,tickets_required
Weekly Cricket Match in Kandy,Business Conference,12-Sep-25,15:45,Kandy City Centre Auditorium,"122 Peradeniya Road, Kandy",Peradeniya Botanical Events,A community-focused event bringing together locals and visitors.,2000,400,7.297603,80.6324,5,2,25.57,"networking,registration,student"
Monthly Tech Summit in Kandy,Religious,12-Jan-26,7:45,Pallekele International Cricket Stadium,"43 Market Lane, Kandy",Kandy Sports Association,An outdoor celebration showcasing local culture and crafts.,750,500,7.241984,80.634108,4.1,777,32.33677027,"registration,free,tickets_required"
Community Cultural Show in Kandy,Market,8-Feb-23,9:15,Kandy Art Gallery,"53 Lake Road, Kandy",Sri Lanka Conference Org,A community-focused event bringing together locals and visitors.,200,500,7.306375,80.648724,4.3,44,32.33677027,"free,kids"
Annual Tech Summit in Kandy,Educational Workshop,17-Dec-25,16:45,Mahaweli Reach Hotel Conference Room,"26 Hill Street, Kandy",Kandy Cultural Society,An informative session with expert speakers and networking opportunities.,0,75,7.253452,80.600082,4.1,709,26.43,registration
Community Art Fair in Kandy,Educational Workshop,30-Apr-23,15:45,Kandy Town Hall,"106 Main Street, Kandy",Heritage Kandy,An outdoor celebration showcasing local culture and crafts.,100,150,7.260635,80.65591,1,1,32.33677027,"student,paid,indoor"
Open Startup Pitch in Kandy,Cultural Festival,13-Apr-25,8:45,Local Community Hall,"60 Temple Road, Kandy",Sri Lanka Conference Org,Hands-on workshop suitable for beginners and professionals.,500,500,7.261533,80.657443,5,3,30.29,"paid,tickets_required"
Grand Film Night in Kandy,Market,11-Jan-26,11:15,Kandy Lakefront Hall,"11 Temple Road, Kandy",Kandy Sports Association,An outdoor celebration showcasing local culture and crafts.,300,50,7.305011,80.657278,5,41,31.71,"networking,student"
Monthly Job Fair in Kandy,Art & Craft,11-Nov-25,15:00,Kandy Cultural Centre,"145 Temple Road, Kandy",Local Artists Collective,An informative session with expert speakers and networking opportunities.,0,100,7.264051,80.617671,3.7,3,32.33677027,"tickets_required,kids,registration"
Open Book Reading in Kandy,Market,18-May-24,16:30,Local Community Hall,"85 Temple Road, Kandy",Lanka Events Co.,An outdoor celebration showcasing local culture and crafts.,2000,50,7.313121,80.599361,5,1,32.57,"professional,student,tickets_required"
Weekly Cricket Match in Kandy,Market,5-Mar-23,20:00,Bogambara Stadium,"154 Main Street, Kandy",Sri Lanka Conference Org,Hands-on workshop suitable for beginners and professionals.,100,75,7.27094,80.64874,4.1,212,38.86,outdoor
Weekly Book Reading in Kandy,Market,23-Dec-26,17:15,Kandy Sports Complex,"161 Main Street, Kandy",Kandy Tourism Board,An informative session with expert speakers and networking opportunities.,1000,50,7.304673,80.60548,5,3,34.71,outdoor
Monthly Coding Workshop in Kandy,Business Conference,21-Oct-25,21:15,Kandy Sports Complex,"145 Market Lane, Kandy",Local Artists Collective,An outdoor celebration showcasing local culture and crafts.,0,100,7.294591,80.62956,5,2,32.33677027,tickets_required
Open Startup Pitch in Kandy,Religious,20-Oct-26,14:45,Kandy Town Hall,"173 Market Lane, Kandy",Heritage Kandy,Hands-on workshop suitable for beginners and professionals.,1500,200,7.244149,80.655713,4.6,14,39.43,"tickets_required,free"
Open Food Festival in Kandy,Music Event,10-May-25,20:30,Kandy Sports Complex,"86 Temple Road, Kandy",Mahaweli Event Planners,An informative session with expert speakers and networking opportunities.,500,300,7.310408,80.646537,5,4,23.71,"indoor,paid"
Annual Film Night in Kandy,Music Event,19-Feb-23,16:30,Kandy Art Gallery,"62 Main Street, Kandy",Peradeniya Botanical Events,An outdoor celebration showcasing local culture and crafts.,500,75,7.306601,80.647514,5,3,25.29,paid
Weekly Film Night in Kandy,Film Screening,3-Oct-24,8:15,Kandy City Centre Auditorium,"15 Main Street, Kandy",Peradeniya Botanical Events,Hands-on workshop suitable for beginners and professionals.,0,50,7.288859,80.620229,5,6,36.71,"paid,registration"
Community Startup Pitch in Kandy,Religious,25-Feb-25,20:45,Kandy Town Hall,"173 Peradeniya Road, Kandy",Kandy Foodies Club,An informative session with expert speakers and networking opportunities.,200,75,7.242078,80.626205,4.3,6,35.86,"family,tickets_required,indoor"
Local Cultural Show in Kandy,Business Expo,25-Jun-26,20:15,Kandy Art Gallery,"12 Temple Road, Kandy",Heritage Kandy,Hands-on workshop suitable for beginners and professionals.,1000,200,7.250214,80.630917,4,1,32.33677027,"registration,kids"
Grand Handicraft Market in Kandy,Cultural Festival,16-Apr-26,10:00,Kandy Town Hall,"144 Peradeniya Road, Kandy",Sri Lanka Conference Org,Hands-on workshop suitable for beginners and professionals.,500,75,7.244369,80.614067,5,1,26,"kids,registration,networking"
Local Music Night in Kandy,Business Expo,3-Aug-23,20:00,Temple of the Tooth Grounds,"164 Lake Road, Kandy",Kandy Municipal Council,Hands-on workshop suitable for beginners and professionals.,0,400,7.295458,80.622658,3.6,5,30.29,free
